[
  {
    "name": "Biblioteca Municipal António Botto",
    "municipality": "Abrantes",
    "address": "Convento de S. Domingos, 2200-343 Abrantes",
    "phone": "",
    "type": "guia",
    "coordinates": {
      "lat": 39.4622,
      "lng": -8.1977
    }
  },
  {
    "name": "Câmara Municipal de Abrantes",
    "municipality": "Abrantes",
    "address": "Praça Raimundo Soares, 2200-366 Abrantes",
    "phone": "",
    "type": "guia",
    "coordinates": {
      "lat": 39.4622,
      "lng": -8.1977
    }
  },
  {
    "name": "Estação de Canoagem de Alvega",
    "municipality": "Abrantes",
    "address": "Rua Avelar Machado, 2205-105 Alvega",
    "phone": "",
    "type": "guia",
    "coordinates": {
      "lat": 39.4622,
      "lng": -8.1977
    }
  },
  {
    "name": "Galeria Municipal de Arte – quARTel",
    "municipality": "Abrantes",
    "address": "Largo de Sant’ana, 2200-348 Abrantes",
    "phone": "",
    "type": "guia",
    "coordinates": {
      "lat": 39.4622,
      "lng": -8.1977
    }
  },
  {
    "name": "Hotel Pôr do Sol",
    "municipality": "Abrantes",
    "address": "EN 118, nº 1509, 2205-322 Pego (Abrantes)",
    "phone": "",
    "type": "guia",
    "coordinates": {
      "lat": 39.4622,
      "lng": -8.1977
    }
  },
  {
    "name": "Luna Hotel Turismo",
    "municipality": "Abrantes",
    "address": "Largo de Santo António, 2200-340 Abrantes",
    "phone": "",
    "type": "guia",
    "coordinates": {
      "lat": 39.4622,
      "lng": -8.1977
    }
  },
  {
    "name": "Museu D. Lopo de Almeida",
    "municipality": "Abrantes",
    "address": "Castelo de Abrantes, 2200 Abrantes",
    "phone": "",
    "type": "guia",
    "coordinates": {
      "lat": 39.4622,
      "lng": -8.1977
    }
  },
  {
    "name": "ParqueTejo",
    "municipality": "Abrantes",
    "address": "Avenida Marginal do Tejo, Rossio ao Sul do Tejo, 2205-003 Abrantes",
    "phone": "",
    "type": "guia",
    "coordinates": {
      "lat": 39.4622,
      "lng": -8.1977
    }
  },
  {
    "name": "Pousada de Juventude de Abrantes",
    "municipality": "Abrantes",
    "address": "Av. Engº Adelino Amaro da Costa, 2200-195 Abrantes",
    "phone": "",
    "type": "guia",
    "coordinates": {
      "lat": 39.4622,
      "lng": -8.1977
    }
  },
  {
    "name": "Residencial Pensão Lírios",
    "municipality": "Abrantes",
    "address": "Praça Barão da Batalha, n.º 31, 2200-365 Abrantes",
    "phone": "",
    "type": "guia",
    "coordinates": {
      "lat": 39.4622,
      "lng": -8.1977
    }
  },
  {
    "name": "Segredos de Aldeia",
    "municipality": "Abrantes",
    "address": "Bungalows Praia Fluvial de Aldeia do Mato, Av. Do Cruzeiro, 2200-601 Aldeia do Mato (Abrantes)",
    "phone": "",
    "type": "guia",
    "coordinates": {
      "lat": 39.4622,
      "lng": -8.1977
    }
  },
  {
    "name": "VDF – Vale de Ferreiros, Agro Turismo",
    "municipality": "Abrantes",
    "address": "Rua da Cabeça Alta, 329, 2205-340 Pego (Abrantes)",
    "phone": "",
    "type": "guia",
    "coordinates": {
      "lat": 39.4622,
      "lng": -8.1977
    }
  },
  {
    "name": "Welcome Center de Abrantes",
    "municipality": "Abrantes",
    "address": "Rua Luís de Camões 20A, 2200-201 Abrantes",
    "phone": "966 822 104",
    "type": "guia_passaporte",
    "coordinates": {
      "lat": 39.4622,
      "lng": -8.1977
    }
  },
  {
    "name": "Posto de Turismo de Aguiar da Beira",
    "municipality": "Aguiar da Beira",
    "address": "Rua Dr. Lencastre de Aguiar 10, 3570-035 Aguiar da Beira",
    "phone": "",
    "type": "guia",
    "coordinates": {
      "lat": 40.8178,
      "lng": -7.5472
    }
  },
  {
    "name": "Posto de Turismo de Alandroal",
    "municipality": "Alandroal",
    "address": "Praça da República, 7250-116 Alandroal",
    "phone": "",
    "type": "guia",
    "coordinates": {
      "lat": 38.707,
      "lng": -7.398
    }
  },
  {
    "name": "Posto de Turismo de Albergaria-a-Velha",
    "municipality": "Albergaria-a-Velha",
    "address": "Praça D. Teresa 7, 3850-137 Albergaria-a-Velha",
    "phone": "",
    "type": "guia",
    "coordinates": {
      "lat": 40.6933,
      "lng": -8.4751
    }
  },
  {
    "name": "Posto de Turismo de Albufeira",
    "municipality": "Albufeira",
    "address": "Rua 5 de Outubro, 8200-000 Albufeira",
    "phone": "",
    "type": "guia",
    "coordinates": {
      "lat": 37.0898,
      "lng": -8.2511
    }
  },
  {
    "name": "Centro Ciência Viva do Alviela",
    "municipality": "Alcanena",
    "address": "Praia Fluvial dos Olhos d'Água do Alviela, 2380-450 Alcanena",
    "phone": "",
    "type": "guia",
    "coordinates": {
      "lat": 39.5667,
      "lng": -8.6167
    }
  },
  {
    "name": "Centro Ciência Viva do Alviela – Carsoscópio",
    "municipality": "Alcanena",
    "address": "Praia Fluvial dos Olhos d’Água do Alviela – Louriceira, 2380-450 Alcanena",
    "phone": "",
    "type": "guia",
    "coordinates": {
      "lat": 39.5667,
      "lng": -8.6167
    }
  },
  {
    "name": "Posto de Turismo de Alcobaça",
    "municipality": "Alcobaça",
    "address": "Praça 25 de Abril, Alcobaça",
    "phone": "",
    "type": "guia",
    "coordinates": {
      "lat": 39.5519,
      "lng": -8.9783
    }
  },
  {
    "name": "Posto de Turismo de Aljubarrota",
    "municipality": "Alcobaça",
    "address": "Praça do Pelourinho, 2460-601 Aljubarrota",
    "phone": "",
    "type": "guia",
    "coordinates": {
      "lat": 39.5519,
      "lng": -8.9783
    }
  },
  {
    "name": "Posto de Turismo de São Martinho do Porto",
    "municipality": "Alcobaça",
    "address": "Rua Vasco da Gama, n.º 18, 2460-680 São Martinho do Porto",
    "phone": "",
    "type": "guia",
    "coordinates": {
      "lat": 39.5519,
      "lng": -8.9783
    }
  },
  {
    "name": "Posto de Turismo de Alcochete",
    "municipality": "Alcochete",
    "address": "Escola Conde Ferreira, Largo Barão de Samora Correia, 2890-081 Alcochete",
    "phone": "",
    "type": "guia",
    "coordinates": {
      "lat": 38.7534,
      "lng": -8.9627
    }
  },
  {
    "name": "Posto de Turismo de Alcoutim",
    "municipality": "Alcoutim",
    "address": "Rua 1º de Maio, 8970-056 Alcoutim",
    "phone": "",
    "type": "guia",
    "coordinates": {
      "lat": 37.4727,
      "lng": -7.472
    }
  },
  {
    "name": "Posto de Turismo de Alcácer do Sal",
    "municipality": "Alcácer do Sal",
    "address": "Largo Luís de Camões, 7580-117 Alcácer do Sal",
    "phone": "",
    "type": "guia",
    "coordinates": {
      "lat": 38.372,
      "lng": -8.5127
    }
  },
  {
    "name": "Posto de Turismo de Alenquer",
    "municipality": "Alenquer",
    "address": "Rua dos Guerras 4, 2580-309 Alenquer",
    "phone": "",
    "type": "guia",
    "coordinates": {
      "lat": 39.0584,
      "lng": -9.0115
    }
  },
  {
    "name": "Posto de Turismo de Alfândega da Fé",
    "municipality": "Alfândega da Fé",
    "address": "Largo São Sebastião, 5350-013 Alfândega da Fé",
    "phone": "",
    "type": "guia",
    "coordinates": {
      "lat": 41.3484,
      "lng": -6.9577
    }
  },
  {
    "name": "Posto de Turismo de Alijó",
    "municipality": "Alijó",
    "address": "Avenida Teixeira de Sousa, 5070-012 Alijó",
    "phone": "",
    "type": "guia",
    "coordinates": {
      "lat": 41.2774,
      "lng": -7.4659
    }
  },
  {
    "name": "Posto de Turismo de Aljezur",
    "municipality": "Aljezur",
    "address": "Rua 25 de Abril 62, 8670-088 Aljezur",
    "phone": "",
    "type": "guia",
    "coordinates": {
      "lat": 37.3195,
      "lng": -8.7999
    }
  },
  {
    "name": "Posto de Turismo de Aljustrel",
    "municipality": "Aljustrel",
    "address": "Av. 1 Maio – Centro documentação Local, 7600-068  Aljustrel",
    "phone": "",
    "type": "guia",
    "coordinates": {
      "lat": 37.8745,
      "lng": -8.1653
    }
  },
  {
    "name": "Centro Municipal de Turismo de Almada",
    "municipality": "Almada",
    "address": "Largo dos Bombeiros, 2800-268 Almada",
    "phone": "",
    "type": "guia",
    "coordinates": {
      "lat": 38.6816,
      "lng": -9.1591
    }
  },
  {
    "name": "Centro Municipal de Turismo em Cacilhas",
    "municipality": "Almada",
    "address": "Largo dos Bombeiros Voluntários, 2800-268 Almada",
    "phone": "",
    "type": "guia",
    "coordinates": {
      "lat": 38.6816,
      "lng": -9.1591
    }
  },
  {
    "name": "Picadeiro D’el Rey",
    "municipality": "Almeida",
    "address": "Baluarte de N.ª Senhora das Brotas, 6350-139 Almeida",
    "phone": "",
    "type": "guia",
    "coordinates": {
      "lat": 40.7273,
      "lng": -7.0421
    }
  },
  {
    "name": "Posto de Turismo de Almeida",
    "municipality": "Almeida",
    "address": "Portas de São Francisco, 6350-130 Almeida",
    "phone": "",
    "type": "guia",
    "coordinates": {
      "lat": 40.7273,
      "lng": -7.0421
    }
  },
  {
    "name": "Posto de Turismo de Vilar Formoso",
    "municipality": "Almeida",
    "address": "CEDET – Edifício da Alfândega, 6355-217 Vilar Formoso",
    "phone": "",
    "type": "guia",
    "coordinates": {
      "lat": 40.7273,
      "lng": -7.0421
    }
  },
  {
    "name": "Termas de Almeida – Fonte Santa",
    "municipality": "Almeida",
    "address": "Encosta da Fonte Santa, EN 332, 6350-239  Almeida",
    "phone": "",
    "type": "guia",
    "coordinates": {
      "lat": 40.7273,
      "lng": -7.0421
    }
  },
  {
    "name": "Posto de Turismo de Almeirim",
    "municipality": "Almeirim",
    "address": "Largo da Praça de Touros, 2080-030 Almeirim",
    "phone": "",
    "type": "guia",
    "coordinates": {
      "lat": 39.2051,
      "lng": -8.6283
    }
  },
  {
    "name": "Posto de Turismo de Almodôvar",
    "municipality": "Almodôvar",
    "address": "Rua do Convento 25, 7700-058 Almodôvar",
    "phone": "",
    "type": "guia",
    "coordinates": {
      "lat": 37.5162,
      "lng": -8.0631
    }
  },
  {
    "name": "Posto de Turismo de Alpiarça",
    "municipality": "Alpiarça",
    "address": "Praça José Rodrigues Faustino Pinho, 2090-222 Alpiarça",
    "phone": "",
    "type": "guia",
    "coordinates": {
      "lat": 39.2591,
      "lng": -8.5829
    }
  },
  {
    "name": "Posto de Turismo de Alter do Chão",
    "municipality": "Alter do Chão",
    "address": "Largo Barreto Caldeira 18, 7440-022 Alter do Chão",
    "phone": "",
    "type": "guia",
    "coordinates": {
      "lat": 39.2051,
      "lng": -7.6597
    }
  },
  {
    "name": "Posto de Turismo de Alvaiázere",
    "municipality": "Alvaiázere",
    "address": "Praça do Município, 3250-100 Alvaiázere",
    "phone": "",
    "type": "guia",
    "coordinates": {
      "lat": 39.8225,
      "lng": -8.3817
    }
  },
  {
    "name": "Posto de Turismo de Alvito",
    "municipality": "Alvito",
    "address": "Largo do Relógio 1, 7920-022 Alvito",
    "phone": "",
    "type": "guia",
    "coordinates": {
      "lat": 38.2499,
      "lng": -8.0367
    }
  },
  {
    "name": "Biblioteca Municipal Fernando Piteira Santos",
    "municipality": "Amadora",
    "address": "Av. Conde Castro Guimarães 6, 2720-119 Amadora",
    "phone": "",
    "type": "guia",
    "coordinates": {
      "lat": 38.7596,
      "lng": -9.2311
    }
  },
  {
    "name": "Posto de Turismo de Amarante",
    "municipality": "Amarante",
    "address": "Alameda Teixeira de Pascoaes, 4600-011 Amarante",
    "phone": "",
    "type": "guia",
    "coordinates": {
      "lat": 41.2694,
      "lng": -8.0784
    }
  },
  {
    "name": "Posto de Turismo de Amares",
    "municipality": "Amares",
    "address": "Avenida Afonso Manuel, 4720-249 Amares",
    "phone": "",
    "type": "guia",
    "coordinates": {
      "lat": 41.6376,
      "lng": -8.3461
    }
  },
  {
    "name": "Posto de Turismo da Curia",
    "municipality": "Anadia",
    "address": "Largo Dr. Luís Navega, 3780-541 Tamengos",
    "phone": "",
    "type": "guia",
    "coordinates": {
      "lat": 40.431,
      "lng": -8.533
    }
  },
  {
    "name": "Posto de Turismo de Ansião",
    "municipality": "Ansião",
    "address": "Praça do Município, 3240-143 Ansião",
    "phone": "",
    "type": "guia",
    "coordinates": {
      "lat": 39.909,
      "lng": -8.443
    }
  },
  {
    "name": "Posto de Turismo de Arcos de Valdevez",
    "municipality": "Arcos de Valdevez",
    "address": "Rua Luís de Camões 20A",
    "phone": "",
    "type": "guia_passaporte",
    "coordinates": {
      "lat": 41.8489,
      "lng": -8.4139
    }
  },
  {
    "name": "Câmara Municipal de Arganil",
    "municipality": "Arganil",
    "address": "Largo Cónego Manuel Fernandes Nogueira",
    "phone": "",
    "type": "guia_passaporte",
    "coordinates": {
      "lat": 40.222,
      "lng": -8.0648
    }
  },
  {
    "name": "Posto de Turismo Municipal de Arganil",
    "municipality": "Arganil",
    "address": "Av. das Forças Armadas – Edifício do Museu, 3300-011 Arganil",
    "phone": "",
    "type": "guia",
    "coordinates": {
      "lat": 40.2216,
      "lng": -8.0641
    }
  },
  {
    "name": "Posto de Turismo Municipal do Piódão",
    "municipality": "Arganil",
    "address": "Largo Cónego Manuel Fernandes Nogueira, 6285-018 Piódão",
    "phone": "",
    "type": "guia",
    "coordinates": {
      "lat": 40.2216,
      "lng": -8.0641
    }
  },
  {
    "name": "Posto de Turismo de Arganil",
    "municipality": "Arganil",
    "address": "Av. das Forças Armadas",
    "phone": "",
    "type": "guia_passaporte",
    "coordinates": {
      "lat": 40.2216,
      "lng": -8.0641
    }
  },
  {
    "name": "Posto de Turismo do Piódão",
    "municipality": "Arganil",
    "address": "Largo Cónego Manuel Fernandes Nogueira, 6285-018 Piódão",
    "phone": "235 732 787",
    "type": "guia_passaporte",
    "coordinates": {
      "lat": 40.2477,
      "lng": -7.9372
    }
  },
  {
    "name": "Posto de Turismo de Armamar",
    "municipality": "Armamar",
    "address": "Av. Dr. António Oliveira Salazar, 5110-122 Armamar",
    "phone": "",
    "type": "guia",
    "coordinates": {
      "lat": 41.1012,
      "lng": -7.6898
    }
  },
  {
    "name": "Posto de Turismo de Arouca",
    "municipality": "Arouca",
    "address": "Rua Abel Botelho, nº 4, 4540-114 Arouca",
    "phone": "",
    "type": "guia",
    "coordinates": {
      "lat": 40.9296,
      "lng": -8.2459
    }
  },
  {
    "name": "Posto de Turismo de Arraiolos",
    "municipality": "Arraiolos",
    "address": "Praça do Município 19, 7040-027 Arraiolos",
    "phone": "",
    "type": "guia",
    "coordinates": {
      "lat": 38.7177,
      "lng": -7.9829
    }
  },
  {
    "name": "Posto de Turismo de Arraiolos – Centro Interpretativo do Tapete de Arraiolos",
    "municipality": "Arraiolos",
    "address": "Praça do Município n.º 19, 7040-027 Arraiolos",
    "phone": "",
    "type": "guia",
    "coordinates": {
      "lat": 38.7177,
      "lng": -7.9829
    }
  },
  {
    "name": "Posto de Turismo de Arronches",
    "municipality": "Arronches",
    "address": "Largo Serpa Pinto 10, 7340-009 Arronches",
    "phone": "",
    "type": "guia",
    "coordinates": {
      "lat": 39.126,
      "lng": -7.284
    }
  },
  {
    "name": "Posto de Turismo de Arronches – Museu de “Abrincar”",
    "municipality": "Arronches",
    "address": "Largo Serpa Pinto, nº. 10, 7340-009 Arronches",
    "phone": "",
    "type": "guia",
    "coordinates": {
      "lat": 39.126,
      "lng": -7.284
    }
  },
  {
    "name": "Posto de Turismo de Arruda dos Vinhos",
    "municipality": "Arruda dos Vinhos",
    "address": "Largo Miguel Bombarda, 2630 Arruda dos Vinhos",
    "phone": "",
    "type": "guia",
    "coordinates": {
      "lat": 38.9862,
      "lng": -9.0697
    }
  },
  {
    "name": "Aveiro Welcome Center",
    "municipality": "Aveiro",
    "address": "Rua Clube dos Galitos, N.º 2, 3810-085 Aveiro",
    "phone": "",
    "type": "guia",
    "coordinates": {
      "lat": 40.6405,
      "lng": -8.6538
    }
  },
  {
    "name": "Posto de Turismo de Aveiro",
    "municipality": "Aveiro",
    "address": "Rua João Mendonça 8, Aveiro",
    "phone": "",
    "type": "guia",
    "coordinates": {
      "lat": 40.6405,
      "lng": -8.6538
    }
  },
  {
    "name": "Posto de Turismo de Avis",
    "municipality": "Avis",
    "address": "Praça Serpa Pinto 1, 7480-122",
    "phone": "",
    "type": "guia",
    "coordinates": {
      "lat": 39.0706,
      "lng": -7.8897
    }
  },
  {
    "name": "Posto de Turismo da Azambuja",
    "municipality": "Azambuja",
    "address": "Rua Engº Moniz da Maia, nº 29., 2050-315 Azambuja",
    "phone": "",
    "type": "guia",
    "coordinates": {
      "lat": 39.0718,
      "lng": -8.8672
    }
  },
  {
    "name": "Posto de Turismo de Azambuja",
    "municipality": "Azambuja",
    "address": "Rua Engº Moniz da Maia 29, 2050-315 Azambuja",
    "phone": "",
    "type": "guia",
    "coordinates": {
      "lat": 39.0718,
      "lng": -8.8672
    }
  },
  {
    "name": "Posto de Turismo de Baião",
    "municipality": "Baião",
    "address": "Avenida 25 de Abril, 4640-139 Baião",
    "phone": "",
    "type": "guia",
    "coordinates": {
      "lat": 41.1626,
      "lng": -8.0351
    }
  },
  {
    "name": "Posto de Turismo de Barcelos",
    "municipality": "Barcelos",
    "address": "Largo Dr. José Novais 27, 4750-310 Barcelos",
    "phone": "",
    "type": "guia",
    "coordinates": {
      "lat": 41.5341,
      "lng": -8.6154
    }
  },
  {
    "name": "Posto de Turismo de Barrancos",
    "municipality": "Barrancos",
    "address": "Rua 1º de Dezembro, 7230-042 Barrancos",
    "phone": "",
    "type": "guia",
    "coordinates": {
      "lat": 38.132,
      "lng": -6.983
    }
  },
  {
    "name": "Posto Turismo do Barreiro",
    "municipality": "Barreiro",
    "address": "Terminal Rodo-Ferro-Fluvial do Barreiro (loja nº 10), 2830-189 Barreiro",
    "phone": "",
    "type": "guia",
    "coordinates": {
      "lat": 38.6596,
      "lng": -9.0767
    }
  },
  {
    "name": "Posto de Turismo de Barreiro",
    "municipality": "Barreiro",
    "address": "Terminal Rodo-Ferro-Fluvial, 2830-189 Barreiro",
    "phone": "",
    "type": "guia",
    "coordinates": {
      "lat": 38.6596,
      "lng": -9.0767
    }
  },
  {
    "name": "Posto de Turismo da Batalha",
    "municipality": "Batalha",
    "address": "Praça Mouzinho de Albuquerque, Batalha",
    "phone": "",
    "type": "guia",
    "coordinates": {
      "lat": 39.6585,
      "lng": -8.8243
    }
  },
  {
    "name": "Posto de Turismo de Beja",
    "municipality": "Beja",
    "address": "Rua Capitão João Francisco de Sousa 25, Beja",
    "phone": "",
    "type": "guia",
    "coordinates": {
      "lat": 38.0156,
      "lng": -7.8644
    }
  },
  {
    "name": "Belmonte Sinai Hotel",
    "municipality": "Belmonte",
    "address": "Largo de S.Sebastião, 6250-023 Belmonte",
    "phone": "",
    "type": "guia",
    "coordinates": {
      "lat": 40.3588,
      "lng": -7.3494
    }
  },
  {
    "name": "Biblioteca Municipal de Belmonte",
    "municipality": "Belmonte",
    "address": "Rua Pedro Álvares Cabral, 6250-088 Belmonte, Hotel Belsol, Quinta do Rio, 6250 Belmonte",
    "phone": "",
    "type": "guia",
    "coordinates": {
      "lat": 40.3588,
      "lng": -7.3494
    }
  },
  {
    "name": "Museu Judaico",
    "municipality": "Belmonte",
    "address": "Rua da Portela, n.º 4, 6250 Belmonte",
    "phone": "",
    "type": "guia",
    "coordinates": {
      "lat": 40.3588,
      "lng": -7.3494
    }
  },
  {
    "name": "Museu dos Descobrimentos",
    "municipality": "Belmonte",
    "address": "Rua Pedro Álvares Cabral n.º 68, 6250-088 Belmonte, Museus de Belmonte, EMPDS Belmonte EM",
    "phone": "",
    "type": "guia",
    "coordinates": {
      "lat": 40.3588,
      "lng": -7.3494
    }
  },
  {
    "name": "Posto de Turismo de Belmonte",
    "municipality": "Belmonte",
    "address": "Castelo Belmonte, 6250 Belmonte",
    "phone": "",
    "type": "guia",
    "coordinates": {
      "lat": 40.3588,
      "lng": -7.3494
    }
  },
  {
    "name": "Pousada do Convento",
    "municipality": "Belmonte",
    "address": "Serra da Esperança, 6250 Belmonte",
    "phone": "",
    "type": "guia",
    "coordinates": {
      "lat": 40.3588,
      "lng": -7.3494
    }
  },
  {
    "name": "Posto de Turismo de Benavente",
    "municipality": "Benavente",
    "address": "Praça do Município, 2130-038 Benavente",
    "phone": "",
    "type": "guia",
    "coordinates": {
      "lat": 38.9825,
      "lng": -8.8093
    }
  },
  {
    "name": "Posto de Turismo de Bombarral",
    "municipality": "Bombarral",
    "address": "Praça do Município, 2540-046 Bombarral",
    "phone": "",
    "type": "guia",
    "coordinates": {
      "lat": 39.265,
      "lng": -9.1528
    }
  },
  {
    "name": "Posto de Turismo de Borba",
    "municipality": "Borba",
    "address": "Praça da República, 7150-249 Borba",
    "phone": "",
    "type": "guia",
    "coordinates": {
      "lat": 38.7998,
      "lng": -7.4585
    }
  },
  {
    "name": "Posto de Turismo de Boticas",
    "municipality": "Boticas",
    "address": "Rua Gomes Monteiro 3, 5460-304 Boticas",
    "phone": "",
    "type": "guia",
    "coordinates": {
      "lat": 41.6876,
      "lng": -7.6701
    }
  },
  {
    "name": "Posto de Turismo de Braga",
    "municipality": "Braga",
    "address": "Av. da Liberdade n.º 1",
    "phone": "",
    "type": "guia_passaporte",
    "coordinates": {
      "lat": 41.5454,
      "lng": -8.4265
    }
  },
  {
    "name": "Hotel S. Lázaro",
    "municipality": "Bragança",
    "address": "5300-111 Bragança",
    "phone": "",
    "type": "guia",
    "coordinates": {
      "lat": 41.8061,
      "lng": -6.7573
    }
  },
  {
    "name": "Hotel S. Roque",
    "municipality": "Bragança",
    "address": "Rua Miguel Torga – Estacada, 9, 5300-037 Bragança, Hotel Tic – Tac, Rua Emídio Navarro nº85, 5300-210 Bragança",
    "phone": "",
    "type": "guia",
    "coordinates": {
      "lat": 41.8061,
      "lng": -6.7573
    }
  },
  {
    "name": "Hotel Santa Apolónia",
    "municipality": "Bragança",
    "address": "Rua Madre Teresa de Calcutá – Bairro dos Formarigos nº3, 5300-306 Bragança",
    "phone": "",
    "type": "guia",
    "coordinates": {
      "lat": 41.8061,
      "lng": -6.7573
    }
  },
  {
    "name": "Hotel Tulipa",
    "municipality": "Bragança",
    "address": "Rua Dr. Francisco Felgueiras nº8 /10, 5300-134 Bragança, Pousada da Juventude de Bragança, Forte S. João de Deus, 5300-263 Bragança, Pousada de Portugal S. Bartolomeu, Estrada do Turismo, 5300-271 Bragança",
    "phone": "",
    "type": "guia",
    "coordinates": {
      "lat": 41.8061,
      "lng": -6.7573
    }
  },
  {
    "name": "Loja Interactiva de Turismo de Bragança",
    "municipality": "Bragança",
    "address": "Rua Abílio Beça, nº 104, 5300-011 Bragança, Hotel Classis, Av. João da Cruz, 102, 5300-178 Bragança, Hotel Estalagem Turismo, Estrada do Turismo – Cabeça Boa, 5300-852 Bragança, Hotel Ibis, Avenida das Forças Armadas – Rotunda do Lavrador Transmontano, 5300-063 Bragança, Hotel Nordeste Shalom, Av. Abade de Baçal nº39, 5300-068 Bragança",
    "phone": "",
    "type": "guia",
    "coordinates": {
      "lat": 41.8061,
      "lng": -6.7573
    }
  },
  {
    "name": "Posto de Turismo de Bragança",
    "municipality": "Bragança",
    "address": "Av. Cidade de Zamora, Bragança",
    "phone": "+351 273 381 273",
    "type": "guia",
    "coordinates": {
      "lat": 41.8061,
      "lng": -6.7573
    }
  },
  {
    "name": "Posto de Turismo de Cabeceiras de Basto",
    "municipality": "Cabeceiras de Basto",
    "address": "Praça da República 203, 4860-355 Cabeceiras de Basto",
    "phone": "",
    "type": "guia",
    "coordinates": {
      "lat": 41.5159,
      "lng": -7.9908
    }
  },
  {
    "name": "Posto de Turismo de Cadaval",
    "municipality": "Cadaval",
    "address": "Av. Dr. Francisco Sá Carneiro, 2550-103 Cadaval",
    "phone": "",
    "type": "guia",
    "coordinates": {
      "lat": 39.2434,
      "lng": -9.1024
    }
  },
  {
    "name": "Posto de Turismo do Cadaval",
    "municipality": "Cadaval",
    "address": "Avenida Dr. Francisco Sá Carneiro, 2550-103 Cadaval",
    "phone": "",
    "type": "guia",
    "coordinates": {
      "lat": 39.2434,
      "lng": -9.1024
    }
  },
  {
    "name": "Posto de Turismo das Caldas da Rainha",
    "municipality": "Caldas da Rainha",
    "address": "Rua Provedor Frei Jorge São Paulo, 2500 Caldas da Rainha",
    "phone": "",
    "type": "guia",
    "coordinates": {
      "lat": 39.4018,
      "lng": -9.1354
    }
  },
  {
    "name": "Posto de Turismo de Caldas da Rainha",
    "municipality": "Caldas da Rainha",
    "address": "Rua Engenheiro Duarte Pacheco, Caldas da Rainha",
    "phone": "",
    "type": "guia",
    "coordinates": {
      "lat": 39.4018,
      "lng": -9.1354
    }
  },
  {
    "name": "Loja Interativa de Turismo de Caminha",
    "municipality": "Caminha",
    "address": "Praça Conselheiro Silva Torres, 4910-122 Caminha",
    "phone": "",
    "type": "guia",
    "coordinates": {
      "lat": 41.8748,
      "lng": -8.8348
    }
  },
  {
    "name": "Posto de Turismo de Campo Maior",
    "municipality": "Campo Maior",
    "address": "Largo dos Carvajaes, 7370-047 Campo Maior",
    "phone": "",
    "type": "guia",
    "coordinates": {
      "lat": 38.991,
      "lng": -7.064
    }
  },
  {
    "name": "Posto de Turismo de Cantanhede",
    "municipality": "Cantanhede",
    "address": "Largo Conselheiro Ferreira Freire, 3060-503 Cantanhede",
    "phone": "",
    "type": "guia",
    "coordinates": {
      "lat": 40.3452,
      "lng": -8.5962
    }
  },
  {
    "name": "Posto de Turismo de Carrazeda de Ansiães",
    "municipality": "Carrazeda de Ansiães",
    "address": "Praça do CITICA, 5140-085 Carrazeda de Ansiães",
    "phone": "",
    "type": "guia",
    "coordinates": {
      "lat": 41.2345,
      "lng": -7.2862
    }
  },
  {
    "name": "Posto Turismo Carregal do Sal",
    "municipality": "Carregal do Sal",
    "address": "Museu Municipal de Carregal do Sal, Rua Alexandre Braga, 3430-007 Carregal do Sal",
    "phone": "",
    "type": "guia",
    "coordinates": {
      "lat": 40.4328,
      "lng": -8.0038
    }
  },
  {
    "name": "Posto de Turismo Municipal de Carregal do Sal",
    "municipality": "Carregal do Sal",
    "address": "Museu Municipal Manuel Soares de Albergaria, Rua Alexandre Braga, n.º 32, 3430-007 Carregal do Sal",
    "phone": "",
    "type": "guia",
    "coordinates": {
      "lat": 40.4328,
      "lng": -8.0038
    }
  },
  {
    "name": "Posto de Turismo de Carregal do Sal",
    "municipality": "Carregal do Sal",
    "address": "Rua Alexandre Braga, 3430-007 Carregal do Sal",
    "phone": "",
    "type": "guia",
    "coordinates": {
      "lat": 40.4328,
      "lng": -8.0038
    }
  },
  {
    "name": "Posto de Turismo do Cartaxo",
    "municipality": "Cartaxo",
    "address": "Museu Rural e do Vinho, Praça 15 de Dezembro, 2070-050 Cartaxo",
    "phone": "",
    "type": "guia",
    "coordinates": {
      "lat": 39.1588,
      "lng": -8.7864
    }
  },
  {
    "name": "Posto de Informação de Turismo da Natureza (Eco-cabana)",
    "municipality": "Cascais",
    "address": "Avenida da República, 2750-475 Cascais",
    "phone": "",
    "type": "guia",
    "coordinates": {
      "lat": 38.6971,
      "lng": -9.4221
    }
  },
  {
    "name": "Posto de Turismo de Cascais",
    "municipality": "Cascais",
    "address": "Praça 5 de Outubro, 2750-320 Cascais",
    "phone": "",
    "type": "guia",
    "coordinates": {
      "lat": 38.6971,
      "lng": -9.4221
    }
  },
  {
    "name": "Biblioteca Municipal de Castanheira de Pera",
    "municipality": "Castanheira de Pera",
    "address": "Praça da Notabilidade, 3280-017 Castanheira de Pera",
    "phone": "",
    "type": "guia",
    "coordinates": {
      "lat": 40.0,
      "lng": -8.207
    }
  },
  {
    "name": "Casa do Tempo — Castanheira de Pera",
    "municipality": "Castanheira de Pera",
    "address": "Rua Dr. José Fernandes de Carvalho",
    "phone": "",
    "type": "guia_passaporte",
    "coordinates": {
      "lat": 40.0,
      "lng": -8.207
    }
  },
  {
    "name": "Câmara Municipal de Castanheira de Pera",
    "municipality": "Castanheira de Pera",
    "address": "Praça Visconde de Castanheira de Pera, 3280-017 Castanheira de Pera",
    "phone": "",
    "type": "guia",
    "coordinates": {
      "lat": 40.0,
      "lng": -8.207
    }
  },
  {
    "name": "Hotel Lagar do Lago",
    "municipality": "Castanheira de Pera",
    "address": "Sítio do Carvalhal, 3280-102 Castanheira de Pera",
    "phone": "",
    "type": "guia",
    "coordinates": {
      "lat": 40.0,
      "lng": -8.207
    }
  },
  {
    "name": "Posto de Turismo de Castanheira de Pera",
    "municipality": "Castanheira de Pera",
    "address": "Casa do Tempo, Rua Doutor José Fernandes de Carvalho, 3280 Castanheira de Pera, Praia das Rocas, Praça Amarela, 3280-909 Castanheira de Pêra",
    "phone": "",
    "type": "guia",
    "coordinates": {
      "lat": 40.0,
      "lng": -8.207
    }
  },
  {
    "name": "Prazilândia",
    "municipality": "Castanheira de Pera",
    "address": "Av. São Domingos, n.º 33, 3280 Castanheira de Pêra",
    "phone": "",
    "type": "guia",
    "coordinates": {
      "lat": 40.0,
      "lng": -8.207
    }
  },
  {
    "name": "Receção da Praia das Rocas",
    "municipality": "Castanheira de Pera",
    "address": "Praia das Rocas, 3280-039 Castanheira de Pera",
    "phone": "",
    "type": "guia_passaporte",
    "coordinates": {
      "lat": 40.005,
      "lng": -8.21
    }
  },
  {
    "name": "Villa Praia (bungalows) – Praia das Rocas",
    "municipality": "Castanheira de Pera",
    "address": "Praia das Rocas/Parque Azul, 3280 Castanheira de Pera",
    "phone": "",
    "type": "guia",
    "coordinates": {
      "lat": 40.0,
      "lng": -8.207
    }
  },
  {
    "name": "Bar da Praia Fluvial de Almaceda",
    "municipality": "Castelo Branco",
    "address": "Praia Fluvial de Almaceda, 6000-001 Almaceda",
    "phone": "",
    "type": "guia",
    "seasonal": true,
    "coordinates": {
      "lat": 39.855,
      "lng": -7.52
    }
  },
  {
    "name": "Biblioteca Municipal de Castelo Branco",
    "municipality": "Castelo Branco",
    "address": "Campo Mártires da Pátria, 6000 Castelo Branco",
    "phone": "",
    "type": "guia",
    "coordinates": {
      "lat": 39.8208,
      "lng": -7.4913
    }
  },
  {
    "name": "CIMBB - Comunidade Intermunicipal da Beira Baixa",
    "municipality": "Castelo Branco",
    "address": "Praça Rainha D. Leonor - Edifício dos Emblemas 2º andar, 6000-117 Castelo Branco",
    "phone": "272 342 540",
    "type": "guia_passaporte",
    "coordinates": {
      "lat": 39.8215,
      "lng": -7.492
    }
  },
  {
    "name": "Centro Cultura Contemporânea Castelo Branco",
    "municipality": "Castelo Branco",
    "address": "Campo Mártires da Pátria, S/N, (Devesa), 6000-097 Castelo Branco",
    "phone": "",
    "type": "guia",
    "coordinates": {
      "lat": 39.8208,
      "lng": -7.4913
    }
  },
  {
    "name": "Cybercentro de Castelo Branco",
    "municipality": "Castelo Branco",
    "address": "Campo Mártires da Pátria, S/N, 6000-458 Castelo Branco",
    "phone": "",
    "type": "guia",
    "coordinates": {
      "lat": 39.8208,
      "lng": -7.4913
    }
  },
  {
    "name": "Câmara Municipal de Castelo Branco",
    "municipality": "Castelo Branco",
    "address": "Praça do Município, 6000-458 Castelo Branco",
    "phone": "",
    "type": "guia",
    "coordinates": {
      "lat": 39.8208,
      "lng": -7.4913
    }
  },
  {
    "name": "Dokas do Sesmo",
    "municipality": "Castelo Branco",
    "address": "Bar da Praia Fluvial do Sesmo, Tv. da Rua da Aldeia, n.º 8, 6000-711 (Sesmo) Sarzedas",
    "phone": "",
    "type": "guia",
    "coordinates": {
      "lat": 39.8208,
      "lng": -7.4913
    }
  },
  {
    "name": "Dokas do Sesmo — Bar da Praia Fluvial do Sesmo",
    "municipality": "Castelo Branco",
    "address": "Tv. da Rua da Aldeia n.º 8, 6000-711 Sesmo (Sarzedas)",
    "phone": "",
    "type": "guia",
    "seasonal": true,
    "coordinates": {
      "lat": 39.78,
      "lng": -7.56
    }
  },
  {
    "name": "Hostel Esplanada – As Palmeiras",
    "municipality": "Castelo Branco",
    "address": "Av. Dr. Augusto Beirão n.º 11, 6000-348 Castelo Branco",
    "phone": "",
    "type": "guia",
    "coordinates": {
      "lat": 39.8208,
      "lng": -7.4913
    }
  },
  {
    "name": "Hotel Rainha D. Amélia, Arts & Leisure",
    "municipality": "Castelo Branco",
    "address": "Rua de Santiago, n.º 15, 6000-179 Castelo Branco",
    "phone": "",
    "type": "guia",
    "coordinates": {
      "lat": 39.8208,
      "lng": -7.4913
    }
  },
  {
    "name": "Hotel Residencial Terminal",
    "municipality": "Castelo Branco",
    "address": "Rua do Terminal, n.º 4, 6000-198 Castelo Branco",
    "phone": "",
    "type": "guia",
    "coordinates": {
      "lat": 39.8208,
      "lng": -7.4913
    }
  },
  {
    "name": "Junta de Freguesia de Almaceda",
    "municipality": "Castelo Branco",
    "address": "Largo Prof. José Lopes Machaz n.º 5, 6000-001 Almaceda",
    "phone": "",
    "type": "guia",
    "coordinates": {
      "lat": 39.8208,
      "lng": -7.4913
    }
  },
  {
    "name": "Junta de Freguesia de Sarzedas",
    "municipality": "Castelo Branco",
    "address": "Estrada Nacional 233, 6000-708 Sarzedas",
    "phone": "",
    "type": "guia",
    "coordinates": {
      "lat": 39.8208,
      "lng": -7.4913
    }
  },
  {
    "name": "Meliã Castelo Branco",
    "municipality": "Castelo Branco",
    "address": "Rua da Piscina, 6000-776 Castelo Branco",
    "phone": "",
    "type": "guia",
    "coordinates": {
      "lat": 39.8208,
      "lng": -7.4913
    }
  },
  {
    "name": "Museu Cargaleiro",
    "municipality": "Castelo Branco",
    "address": "Rua dos Cavaleiros, n.º 23, 6000-189 Castelo Branco",
    "phone": "",
    "type": "guia",
    "coordinates": {
      "lat": 39.8208,
      "lng": -7.4913
    }
  },
  {
    "name": "Museu Tavares Proença Júnior",
    "municipality": "Castelo Branco",
    "address": "Largo Dr. José Dias Lopes, 6000-462 Castelo Branco",
    "phone": "",
    "type": "guia",
    "coordinates": {
      "lat": 39.8208,
      "lng": -7.4913
    }
  },
  {
    "name": "Posto de Turismo de Castelo Branco",
    "municipality": "Castelo Branco",
    "address": "Av. Nuno Álvares n.º 30",
    "phone": "",
    "type": "guia_passaporte",
    "coordinates": {
      "lat": 39.8208,
      "lng": -7.4913
    }
  },
  {
    "name": "Residencial A Telhadense",
    "municipality": "Castelo Branco",
    "address": "Rua das Damas, n.º 6, 6000-175 Castelo Branco",
    "phone": "",
    "type": "guia",
    "coordinates": {
      "lat": 39.8208,
      "lng": -7.4913
    }
  },
  {
    "name": "Residencial Europa",
    "municipality": "Castelo Branco",
    "address": "Zona Industrial, 6000-459 Castelo Branco",
    "phone": "",
    "type": "guia",
    "coordinates": {
      "lat": 39.8208,
      "lng": -7.4913
    }
  },
  {
    "name": "Residencial Horta d’Alva",
    "municipality": "Castelo Branco",
    "address": "Rua Eng. Frederico Ulrich, n.º 40, 6000-223 Castelo Branco",
    "phone": "",
    "type": "guia",
    "coordinates": {
      "lat": 39.8208,
      "lng": -7.4913
    }
  },
  {
    "name": "Residencial Império do Rei",
    "municipality": "Castelo Branco",
    "address": "Rua dos Prazeres n.º 20, 6000-209 Castelo Branco",
    "phone": "",
    "type": "guia",
    "coordinates": {
      "lat": 39.8208,
      "lng": -7.4913
    }
  },
  {
    "name": "Posto de Turismo de Castelo de Paiva",
    "municipality": "Castelo de Paiva",
    "address": "Loja Interativa de Turismo, Largo do Conde – Sobrado, 4550-102 Castelo de Paiva",
    "phone": "",
    "type": "guia",
    "coordinates": {
      "lat": 41.0333,
      "lng": -8.2667
    }
  },
  {
    "name": "Posto de Turismo de Castelo de Vide",
    "municipality": "Castelo de Vide",
    "address": "Praça Dom Pedro V, Castelo de Vide",
    "phone": "",
    "type": "guia",
    "coordinates": {
      "lat": 39.4167,
      "lng": -7.4543
    }
  },
  {
    "name": "Centro de Interpretação e Informação do Montemuro e Paiva",
    "municipality": "Castro Daire",
    "address": "Rua Dr. Pio de Figueiredo, nº 31, 3600-214 Castro Daire",
    "phone": "",
    "type": "guia",
    "coordinates": {
      "lat": 40.8996,
      "lng": -7.9381
    }
  },
  {
    "name": "Museu Municipal de Castro Daire",
    "municipality": "Castro Daire",
    "address": "R. Dr. Lacerda Pinto, 3600 Castro Daire",
    "phone": "",
    "type": "guia",
    "coordinates": {
      "lat": 40.8996,
      "lng": -7.9381
    }
  },
  {
    "name": "Welcome Center – Visit Castro Daire",
    "municipality": "Castro Daire",
    "address": "Rua Dr. Pio de Figueiredo, nº 42, 3600-214 Castro Daire",
    "phone": "",
    "type": "guia",
    "coordinates": {
      "lat": 40.8996,
      "lng": -7.9381
    }
  },
  {
    "name": "Posto de Turismo de Castro Marim",
    "municipality": "Castro Marim",
    "address": "Rua de São Sebastião 3, 8950-281 Castro Marim",
    "phone": "",
    "type": "guia",
    "coordinates": {
      "lat": 37.2163,
      "lng": -7.443
    }
  },
  {
    "name": "Posto de Turismo de Castro Verde",
    "municipality": "Castro Verde",
    "address": "Rua D. Afonso Henriques s/n (junto à igreja dos Remédios), 7780-183 Castro Verde",
    "phone": "",
    "type": "guia",
    "coordinates": {
      "lat": 37.6985,
      "lng": -8.0862
    }
  },
  {
    "name": "Câmara Municipal de Celorico da Beira",
    "municipality": "Celorico da Beira",
    "address": "Rua Sacadura Cabral, 6360 Celorico da Beira",
    "phone": "",
    "type": "guia",
    "coordinates": {
      "lat": 40.6372,
      "lng": -7.3897
    }
  },
  {
    "name": "Espaço Internet de Celorico da Beira",
    "municipality": "Celorico da Beira",
    "address": "Rua da Corredoura – Edifício Centro Cultural, 1º andar, 6360-100 Celorico da Beira",
    "phone": "",
    "type": "guia",
    "coordinates": {
      "lat": 40.6372,
      "lng": -7.3897
    }
  },
  {
    "name": "Hotel Mira Serra",
    "municipality": "Celorico da Beira",
    "address": "Bairro Santa Eufémia – São Pedro, 6360-323 Celorico da Beira",
    "phone": "",
    "type": "guia",
    "coordinates": {
      "lat": 40.6372,
      "lng": -7.3897
    }
  },
  {
    "name": "Hotel Quinta dos Cedros",
    "municipality": "Celorico da Beira",
    "address": "Avenida Doutor Marques Fernandes n.º 1, 6360-356 Celorico da Beira",
    "phone": "",
    "type": "guia",
    "coordinates": {
      "lat": 40.6372,
      "lng": -7.3897
    }
  },
  {
    "name": "Inatel Linhares da Beira Hotel Rural",
    "municipality": "Celorico da Beira",
    "address": "Largo da Misericórdia, 6360-080 Linhares da Beira",
    "phone": "",
    "type": "guia",
    "coordinates": {
      "lat": 40.6372,
      "lng": -7.3897
    }
  },
  {
    "name": "Posto de Turismo de Celorico da Beira",
    "municipality": "Celorico da Beira",
    "address": "Rua Sacadura Cabral, 6360 Celorico da Beira",
    "phone": "",
    "type": "guia",
    "coordinates": {
      "lat": 40.6372,
      "lng": -7.3897
    }
  },
  {
    "name": "Posto de Turismo de Linhares da Beira",
    "municipality": "Celorico da Beira",
    "address": "Capela de Nosso Senhor dos Passos, 6360-080 Linhares da Beira",
    "phone": "",
    "type": "guia",
    "coordinates": {
      "lat": 40.6372,
      "lng": -7.3897
    }
  },
  {
    "name": "Posto de Turismo de Celorico de Basto",
    "municipality": "Celorico de Basto",
    "address": "Praça Cardeal D. António Ribeiro. 153, 4890-220 Celorico de Basto",
    "phone": "",
    "type": "guia",
    "coordinates": {
      "lat": 41.3895,
      "lng": -7.9961
    }
  },
  {
    "name": "Posto de Turismo da Chamusca",
    "municipality": "Chamusca",
    "address": "Edifício da Câmara Municipal da Chamusca, Rua Direita de São Pedro, 2140-098 Chamusca",
    "phone": "",
    "type": "guia",
    "coordinates": {
      "lat": 39.3553,
      "lng": -8.4786
    }
  },
  {
    "name": "Posto de Turismo de Chaves",
    "municipality": "Chaves",
    "address": "Termas de Chaves, Chaves",
    "phone": "",
    "type": "guia",
    "coordinates": {
      "lat": 41.7381,
      "lng": -7.469
    }
  },
  {
    "name": "Loja Interativa de Turismo de Cinfães",
    "municipality": "Cinfães",
    "address": "Posto de Turismo de Cinfães, Quinta do Aido, 4690 Cinfães",
    "phone": "",
    "type": "guia",
    "coordinates": {
      "lat": 41.0662,
      "lng": -8.0901
    }
  },
  {
    "name": "Posto de Turismo de Coimbra",
    "municipality": "Coimbra",
    "address": "Rua Ferreira Borges 20",
    "phone": "",
    "type": "guia_passaporte",
    "coordinates": {
      "lat": 40.2088,
      "lng": -8.428
    }
  },
  {
    "name": "Posto de Turismo de Coimbra — Baixa",
    "municipality": "Coimbra",
    "address": "Rua António Granjo n.º 6",
    "phone": "",
    "type": "guia_passaporte",
    "coordinates": {
      "lat": 40.2094,
      "lng": -8.4275
    }
  },
  {
    "name": "Posto de Turismo de Condeixa-a-Nova",
    "municipality": "Condeixa-a-nova",
    "address": "Casa dos Arcos, Rua de Condeixinha nº39/41, 3150-132 Condeixa-a-Nova",
    "phone": "",
    "type": "guia",
    "coordinates": {
      "lat": 40.1153,
      "lng": -8.4951
    }
  },
  {
    "name": "Posto de Turismo de Constância",
    "municipality": "Constância",
    "address": "Rua Luís de Camões n.º 2",
    "phone": "",
    "type": "guia_passaporte",
    "coordinates": {
      "lat": 39.4724,
      "lng": -8.3329
    }
  },
  {
    "name": "Bar da Praia Fluvial do Sorraia",
    "municipality": "Coruche",
    "address": "Praia Fluvial do Sorraia, 2100-116 Coruche",
    "phone": "",
    "type": "guia",
    "seasonal": true,
    "coordinates": {
      "lat": 38.96,
      "lng": -8.525
    }
  },
  {
    "name": "Loja do Montado — Coruche",
    "municipality": "Coruche",
    "address": "Loja do Montado, Coruche",
    "phone": "",
    "type": "guia_passaporte",
    "coordinates": {
      "lat": 38.9638,
      "lng": -8.5236
    }
  },
  {
    "name": "Posto de Turismo de Coruche",
    "municipality": "Coruche",
    "address": "Junto à Galeria do Mercado Municipal, 2100-116 Coruche",
    "phone": "",
    "type": "guia",
    "coordinates": {
      "lat": 38.9638,
      "lng": -8.5236
    }
  },
  {
    "name": "Bar da Praia Fluvial de Ourondo",
    "municipality": "Covilhã",
    "address": "Zona de Lazer de Ourondo, Rua do Mouchão, 6230 Ourondo",
    "phone": "",
    "type": "guia",
    "seasonal": true,
    "coordinates": {
      "lat": 40.22,
      "lng": -7.55
    }
  },
  {
    "name": "Bar da Praia Fluvial de Unhais da Serra",
    "municipality": "Covilhã",
    "address": "Praia Fluvial de Unhais da Serra, 6215-000 Unhais da Serra",
    "phone": "",
    "type": "guia",
    "seasonal": true,
    "coordinates": {
      "lat": 40.24,
      "lng": -7.59
    }
  },
  {
    "name": "Bar da Zona Balnear de Cortes do Meio",
    "municipality": "Covilhã",
    "address": "Zona de Lazer de Cortes do Meio, 6215 Cortes do Meio",
    "phone": "",
    "type": "guia",
    "coordinates": {
      "lat": 40.2801,
      "lng": -7.5039
    }
  },
  {
    "name": "Covilhã Parque Hotel",
    "municipality": "Covilhã",
    "address": "Avenida Frei Heitor Pinto, Bloco A, 6200 Covilhã, Hotel Solneve",
    "phone": "",
    "type": "guia",
    "coordinates": {
      "lat": 40.2801,
      "lng": -7.5039
    }
  },
  {
    "name": "Câmara Municipal da Covilhã",
    "municipality": "Covilhã",
    "address": "Praça do Município, 6200-151 Covilhã",
    "phone": "",
    "type": "guia",
    "coordinates": {
      "lat": 40.2801,
      "lng": -7.5039
    }
  },
  {
    "name": "H2otel – Congress & Medical SPA",
    "municipality": "Covilhã",
    "address": "Avenida das Termas, 6215-574 Unhais da Serra",
    "phone": "",
    "type": "guia",
    "coordinates": {
      "lat": 40.2801,
      "lng": -7.5039
    }
  },
  {
    "name": "Hotel Covilhã Jardim",
    "municipality": "Covilhã",
    "address": "Jardim Público, nº 40, 6200-196 Covilhã",
    "phone": "",
    "type": "guia",
    "coordinates": {
      "lat": 40.2801,
      "lng": -7.5039
    }
  },
  {
    "name": "Hotel Santa Eufémia",
    "municipality": "Covilhã",
    "address": "Alameda da Universidade, 6200 Covilhã",
    "phone": "",
    "type": "guia",
    "coordinates": {
      "lat": 40.2801,
      "lng": -7.5039
    }
  },
  {
    "name": "Hotel Tryp Covilhã D.Maria",
    "municipality": "Covilhã",
    "address": "Alameda Pêro da Covilhã, 6200-077 Covilhã",
    "phone": "",
    "type": "guia",
    "coordinates": {
      "lat": 40.2801,
      "lng": -7.5039
    }
  },
  {
    "name": "Junta de Freguesia de Cortes do Meio",
    "municipality": "Covilhã",
    "address": "Rua Montes Hermínios, n.º 9, 6215-157 Cortes do Meio",
    "phone": "",
    "type": "guia",
    "coordinates": {
      "lat": 40.2801,
      "lng": -7.5039
    }
  },
  {
    "name": "Junta de Freguesia de Paul",
    "municipality": "Covilhã",
    "address": "Rua de Cima, nº17, 6215-380 Paul",
    "phone": "",
    "type": "guia",
    "coordinates": {
      "lat": 40.2801,
      "lng": -7.5039
    }
  },
  {
    "name": "Junta de Freguesia de Sobral de São Miguel",
    "municipality": "Covilhã",
    "address": "Rua do Fundo do Lugar, nº22, 6225-326 Sobral de São Miguel",
    "phone": "",
    "type": "guia",
    "coordinates": {
      "lat": 40.2801,
      "lng": -7.5039
    }
  },
  {
    "name": "Junta de Freguesia de Unhais da Serra",
    "municipality": "Covilhã",
    "address": "Rua Junta de Freguesia, n.º 1, 6215-521 Unhais da Serra",
    "phone": "",
    "type": "guia",
    "coordinates": {
      "lat": 40.2801,
      "lng": -7.5039
    }
  },
  {
    "name": "Junta de Freguesia de Verdelhos",
    "municipality": "Covilhã",
    "address": "Edifício Centro Social e Cultural, 1º andar, Largo do Jardim Público, 6200-821 Verdelhos",
    "phone": "",
    "type": "guia",
    "coordinates": {
      "lat": 40.2801,
      "lng": -7.5039
    }
  },
  {
    "name": "Luna Hotel Serra da Estrela",
    "municipality": "Covilhã",
    "address": "EN 339 – Penhas da Saúde, 6200-073 Covilhã",
    "phone": "",
    "type": "guia",
    "coordinates": {
      "lat": 40.2801,
      "lng": -7.5039
    }
  },
  {
    "name": "Luna Hotel dos Carqueijais",
    "municipality": "Covilhã",
    "address": "Estrada Nacional 339, 6200-073 Covilhã",
    "phone": "",
    "type": "guia",
    "coordinates": {
      "lat": 40.2801,
      "lng": -7.5039
    }
  },
  {
    "name": "Museu de Lanifícios",
    "municipality": "Covilhã",
    "address": "Rua Marquês d’Ávila e Bolama, 6201-001 Covilhã",
    "phone": "",
    "type": "guia",
    "coordinates": {
      "lat": 40.2801,
      "lng": -7.5039
    }
  },
  {
    "name": "Museu do Queijo",
    "municipality": "Covilhã",
    "address": "Rua dos Casainhos, 6200-591 Peraboa (Covilhã)",
    "phone": "",
    "type": "guia",
    "coordinates": {
      "lat": 40.2801,
      "lng": -7.5039
    }
  },
  {
    "name": "Parque de Campismo do Pião",
    "municipality": "Covilhã",
    "address": "EN 339 – Acesso Covilhã – Serra da Estrela, 6200 Covilhã",
    "phone": "",
    "type": "guia",
    "coordinates": {
      "lat": 40.2801,
      "lng": -7.5039
    }
  },
  {
    "name": "Posto de Turismo Municipal da Covilhã",
    "municipality": "Covilhã",
    "address": "Praça do Município",
    "phone": "",
    "type": "guia_passaporte",
    "coordinates": {
      "lat": 40.2801,
      "lng": -7.5039
    }
  },
  {
    "name": "Posto de Turismo da Covilhã",
    "municipality": "Covilhã",
    "address": "Av. Frei Heitor Pinto, n.º 19, 6200-113 Covilhã",
    "phone": "",
    "type": "guia",
    "coordinates": {
      "lat": 40.2801,
      "lng": -7.5039
    }
  },
  {
    "name": "Pousada Serra da Estrela",
    "municipality": "Covilhã",
    "address": "EN 339, 6200-324 Covilhã",
    "phone": "",
    "type": "guia",
    "coordinates": {
      "lat": 40.2801,
      "lng": -7.5039
    }
  },
  {
    "name": "Puralã – Wool Valley Hotel & Spa",
    "municipality": "Covilhã",
    "address": "Acesso à Variante s/n, 6200-507 Covilhã",
    "phone": "",
    "type": "guia",
    "coordinates": {
      "lat": 40.2801,
      "lng": -7.5039
    }
  },
  {
    "name": "Rua Visc. de Coriscada n.º 126",
    "municipality": "Covilhã",
    "address": "6200-077 Covilhã",
    "phone": "",
    "type": "guia",
    "coordinates": {
      "lat": 40.2801,
      "lng": -7.5039
    }
  },
  {
    "name": "União de Freguesias de Casegas e Ourondo",
    "municipality": "Covilhã",
    "address": "Rua Direita, nº2, 6225-123 Casegas",
    "phone": "",
    "type": "guia",
    "coordinates": {
      "lat": 40.2801,
      "lng": -7.5039
    }
  },
  {
    "name": "Posto de Turismo de Flor da Rosa (Crato)",
    "municipality": "Crato",
    "address": "Mosteiro de Santa Maria de Flor da Rosa, 7430-219 Flor da Rosa",
    "phone": "",
    "type": "guia",
    "coordinates": {
      "lat": 39.2758,
      "lng": -7.6466
    }
  },
  {
    "name": "Posto de Turismo de Cuba",
    "municipality": "Cuba",
    "address": "Largo Cristóvão Colon, 7490-145 Cuba",
    "phone": "",
    "type": "guia",
    "coordinates": {
      "lat": 38.1641,
      "lng": -7.8971
    }
  },
  {
    "name": "Posto de Turismo de Elvas",
    "municipality": "Elvas",
    "address": "Praça da República, 7350-126 Elvas, Câmara Municipal de Elvas, R. Isabel Maria Picão, 7350-146 Elvas",
    "phone": "",
    "type": "guia",
    "coordinates": {
      "lat": 38.88,
      "lng": -7.1634
    }
  },
  {
    "name": "Posto de Turismo do Entroncamento",
    "municipality": "Entroncamento",
    "address": "Praça da República (Largo da Estação dos Caminhos-de-Ferro), 2330-079 Entroncamento",
    "phone": "",
    "type": "guia",
    "coordinates": {
      "lat": 39.464,
      "lng": -8.4679
    }
  },
  {
    "name": "Loja Interativa de Turismo de Espinho",
    "municipality": "Espinho",
    "address": "Posto de Turismo de Espinho, Avenida 8 – Centro Comercial Solverde II, 4500-205  Espinho",
    "phone": "",
    "type": "guia",
    "coordinates": {
      "lat": 41.0107,
      "lng": -8.6408
    }
  },
  {
    "name": "Posto de Turismo de Esposende",
    "municipality": "Esposende",
    "address": "Av. Eng. Eduardo Arantes e Oliveira 62, 4740-204 Esposende",
    "phone": "",
    "type": "guia",
    "coordinates": {
      "lat": 41.534,
      "lng": -8.7757
    }
  },
  {
    "name": "Posto de Turismo Estarreja",
    "municipality": "Estarreja",
    "address": "Praça Francisco Barbosa, 3864-001 Estarreja",
    "phone": "",
    "type": "guia",
    "coordinates": {
      "lat": 40.7527,
      "lng": -8.5707
    }
  },
  {
    "name": "Posto de Turismo de Estremoz (Casa de Estremoz)",
    "municipality": "Estremoz",
    "address": "Rossio Marquês Pombal, n.º 88 A, 7100-513 Estremoz",
    "phone": "",
    "type": "guia",
    "coordinates": {
      "lat": 38.8443,
      "lng": -7.5899
    }
  },
  {
    "name": "Loja Interativa de Turismo de Fafe",
    "municipality": "Fafe",
    "address": "Posto de Turismo de Fafe, Praça 25 de Abril, 4820-142 Fafe",
    "phone": "",
    "type": "guia",
    "coordinates": {
      "lat": 41.451,
      "lng": -8.1714
    }
  },
  {
    "name": "Posto de Turismo de Fafe",
    "municipality": "Fafe",
    "address": "Praça 25 de Abril, 4820-142 Fafe",
    "phone": "",
    "type": "guia",
    "coordinates": {
      "lat": 41.451,
      "lng": -8.1714
    }
  },
  {
    "name": "Posto de Turismo de Faro",
    "municipality": "Faro",
    "address": "Rua da Misericórdia 8, Faro",
    "phone": "",
    "type": "guia",
    "coordinates": {
      "lat": 37.0193,
      "lng": -7.9304
    }
  },
  {
    "name": "Posto de Turismo de Felgueiras",
    "municipality": "Felgueiras",
    "address": "Casa das Torres Av. Dr. Magalhães Lemos, 23, 4610-106  Felgueiras",
    "phone": "",
    "type": "guia",
    "coordinates": {
      "lat": 41.3646,
      "lng": -8.1963
    }
  },
  {
    "name": "Posto de Turismo de Ferreira do Alentejo",
    "municipality": "Ferreira do Alentejo",
    "address": "Av. Gago Coutinho e Sacadura Cabral 3 e 5, 7900-110 Ferreira do Alentejo",
    "phone": "",
    "type": "guia",
    "coordinates": {
      "lat": 38.054,
      "lng": -8.117
    }
  },
  {
    "name": "Apartamentos do Lago – Aparthotel",
    "municipality": "Ferreira do Zêzere",
    "address": "Lago Azul – Castanheira, 2240-332 Ferreira do Zêzere",
    "phone": "",
    "type": "guia",
    "coordinates": {
      "lat": 39.6987,
      "lng": -8.2907
    }
  },
  {
    "name": "Biblioteca Municipal de Ferreira do Zêzere",
    "municipality": "Ferreira do Zêzere",
    "address": "Rua João da Costa nº16, 2240-356 Ferreira do Zêzere",
    "phone": "",
    "type": "guia",
    "coordinates": {
      "lat": 39.6987,
      "lng": -8.2907
    }
  },
  {
    "name": "Casa do Barco – Alojamento Local",
    "municipality": "Ferreira do Zêzere",
    "address": "Rua da Albufeira, 529, Pombeira, 2240-372 Ferreira do Zêzere",
    "phone": "",
    "type": "guia",
    "coordinates": {
      "lat": 39.6987,
      "lng": -8.2907
    }
  },
  {
    "name": "Centro de Informação de Dornes",
    "municipality": "Ferreira do Zêzere",
    "address": "Rua Guilherme Pavia n.º 7, Dornes",
    "phone": "",
    "type": "guia_passaporte",
    "coordinates": {
      "lat": 39.6831,
      "lng": -8.3192
    }
  },
  {
    "name": "Clube Náutico do Lago Azul",
    "municipality": "Ferreira do Zêzere",
    "address": "Castanheira, 2240-332 Ferreira do Zêzere",
    "phone": "",
    "type": "guia",
    "coordinates": {
      "lat": 39.6987,
      "lng": -8.2907
    }
  },
  {
    "name": "Câmara Municipal de Ferreira do Zêzere",
    "municipality": "Ferreira do Zêzere",
    "address": "Praça Dias Ferreira, n.º 38, 2240-341 Ferreira do Zêzere",
    "phone": "",
    "type": "guia",
    "coordinates": {
      "lat": 39.6987,
      "lng": -8.2907
    }
  },
  {
    "name": "Estalagem Lago Azul",
    "municipality": "Ferreira do Zêzere",
    "address": "Lago Azul n.º 367, Castanheira, 2240-332 Ferreira do Zêzere",
    "phone": "",
    "type": "guia",
    "coordinates": {
      "lat": 39.6987,
      "lng": -8.2907
    }
  },
  {
    "name": "Hotel Casa do Adro",
    "municipality": "Ferreira do Zêzere",
    "address": "Rua Dr. António Baião n.º13, 2240-347 Ferreira do Zêzere",
    "phone": "",
    "type": "guia",
    "coordinates": {
      "lat": 39.6987,
      "lng": -8.2907
    }
  },
  {
    "name": "Posto de Turismo de Dornes",
    "municipality": "Ferreira do Zêzere",
    "address": "Rua Guilherme Pavia, n.º 7, 2240-611 Dornes",
    "phone": "",
    "type": "guia",
    "coordinates": {
      "lat": 39.6987,
      "lng": -8.2907
    }
  },
  {
    "name": "Posto de Turismo de Ferreira do Zêzere",
    "municipality": "Ferreira do Zêzere",
    "address": "Praça Dias Ferreira",
    "phone": "",
    "type": "guia_passaporte",
    "coordinates": {
      "lat": 39.6987,
      "lng": -8.2907
    }
  },
  {
    "name": "Quinta da Cerejeira – Parque de Campismo",
    "municipality": "Ferreira do Zêzere",
    "address": "Rua D. Maria Fernanda da Mota Cardoso n.º 902, 2240-333 Ferreira do Zêzere",
    "phone": "",
    "type": "guia",
    "coordinates": {
      "lat": 39.6987,
      "lng": -8.2907
    }
  },
  {
    "name": "Terra Oculta",
    "municipality": "Ferreira do Zêzere",
    "address": "Rua Professor Dr. António Esperança Mendes Ferreira, n.º 40, 2240-334 Ferreira do Zêzere",
    "phone": "",
    "type": "guia",
    "coordinates": {
      "lat": 39.6987,
      "lng": -8.2907
    }
  },
  {
    "name": "Posto Municipal de Turismo da Figueira da Foz",
    "municipality": "Figueira da Foz",
    "address": "Esplanada Silva Guimarães Castelo Engenheiro Silva, 3080-085 Figueira da Foz",
    "phone": "",
    "type": "guia",
    "coordinates": {
      "lat": 40.1503,
      "lng": -8.8598
    }
  },
  {
    "name": "Posto Municipal de Turismo da Figueira da Foz (Avenida)",
    "municipality": "Figueira da Foz",
    "address": "Av. 25 de Abril, 3080-501 Figueira da Foz",
    "phone": "",
    "type": "guia",
    "coordinates": {
      "lat": 40.1503,
      "lng": -8.8598
    }
  },
  {
    "name": "Posto de Turismo da Figueira da Foz",
    "municipality": "Figueira da Foz",
    "address": "Av. 25 de Abril, Figueira da Foz",
    "phone": "",
    "type": "guia",
    "coordinates": {
      "lat": 40.1503,
      "lng": -8.8598
    }
  },
  {
    "name": "Posto de Turismo de Barca D´Alva",
    "municipality": "Figueira de Castelo Rodrigo",
    "address": "Cais Turístico Fluvial de Barca D´Alva, 6440-071 Figueira Castelo Rodrigo",
    "phone": "",
    "type": "guia",
    "coordinates": {
      "lat": 40.8963,
      "lng": -6.9657
    }
  },
  {
    "name": "Posto de Turismo de Castelo Rodrigo",
    "municipality": "Figueira de Castelo Rodrigo",
    "address": "Palácio de Cristóvão de Moura, Rua do Relógio, 6440-031 Castelo Rodrigo",
    "phone": "",
    "type": "guia",
    "coordinates": {
      "lat": 40.8963,
      "lng": -6.9657
    }
  },
  {
    "name": "Posto de Turismo de Figueira de Castelo Rodrigo",
    "municipality": "Figueira de Castelo Rodrigo",
    "address": "Largo Mateus de Castro, 6440-111  Figueira de Castelo Rodrigo",
    "phone": "",
    "type": "guia",
    "coordinates": {
      "lat": 40.8963,
      "lng": -6.9657
    }
  },
  {
    "name": "Biblioteca Municipal Simões de Almeida",
    "municipality": "Figueiró dos Vinhos",
    "address": "Rua dos Bombeiros Voluntários, 3260-419 Figueiró dos Vinhos",
    "phone": "",
    "type": "guia",
    "coordinates": {
      "lat": 39.9064,
      "lng": -8.2776
    }
  },
  {
    "name": "Câmara Municipal de Figueiró dos Vinhos",
    "municipality": "Figueiró dos Vinhos",
    "address": "Praça do Município, 3260-408 Figueiró dos Vinhos",
    "phone": "",
    "type": "guia",
    "coordinates": {
      "lat": 39.9064,
      "lng": -8.2776
    }
  },
  {
    "name": "Hotel Rural Solar das Freiras",
    "municipality": "Figueiró dos Vinhos",
    "address": "Rua Dr. Manuel de Vasconcelos, n.º 7, 3260-423 Figueiró dos Vinhos",
    "phone": "",
    "type": "guia",
    "coordinates": {
      "lat": 39.9064,
      "lng": -8.2776
    }
  },
  {
    "name": "Museu e Centro de Artes de Figueiró dos Vinhos",
    "municipality": "Figueiró dos Vinhos",
    "address": "Av. José Malhoa",
    "phone": "",
    "type": "guia_passaporte",
    "coordinates": {
      "lat": 39.9064,
      "lng": -8.2776
    }
  },
  {
    "name": "Parque de Campismo e Caravanismo de Foz de Alge",
    "municipality": "Figueiró dos Vinhos",
    "address": "Foz de Alge, 3260-091 Arega, Varanda do Casal",
    "phone": "",
    "type": "guia",
    "coordinates": {
      "lat": 39.9064,
      "lng": -8.2776
    }
  },
  {
    "name": "Posto de Turismo de Figueiró dos Vinhos",
    "municipality": "Figueiró dos Vinhos",
    "address": "Museu de Artes, Casulo de Malhoa – Avenida José Malhoa, 3260-429 Figueiró dos Vinhos",
    "phone": "",
    "type": "guia",
    "coordinates": {
      "lat": 39.9064,
      "lng": -8.2776
    }
  },
  {
    "name": "Restaurante e Loja do Casal de S. Simão",
    "municipality": "Figueiró dos Vinhos",
    "address": "Casal de S. Simão, 3260-030 Figueiró dos Vinhos",
    "phone": "",
    "type": "guia",
    "coordinates": {
      "lat": 39.9064,
      "lng": -8.2776
    }
  },
  {
    "name": "Bar da Praia Fluvial de Ponte de Juncais",
    "municipality": "Fornos de Algodres",
    "address": "Praia Fluvial de Ponte de Juncais, 6370-000 Fornos de Algodres",
    "phone": "",
    "type": "guia",
    "seasonal": true,
    "coordinates": {
      "lat": 40.6222,
      "lng": -7.5337
    }
  },
  {
    "name": "Câmara Municipal de Fornos de Algodres",
    "municipality": "Fornos de Algodres",
    "address": "Estrada Nacional 16, 6370-999 Fornos de Algodres, Bar da Praia Fluvial de Ponte de Juncais, Praia Fluvial de Ponte de Juncais 6370-000 Fornos de Algodres",
    "phone": "",
    "type": "guia",
    "coordinates": {
      "lat": 40.6222,
      "lng": -7.5337
    }
  },
  {
    "name": "Posto de Turismo de Fornos de Algodres",
    "municipality": "Fornos de Algodres",
    "address": "Fornos de Algodres",
    "phone": "",
    "type": "guia_passaporte",
    "coordinates": {
      "lat": 40.6222,
      "lng": -7.5337
    }
  },
  {
    "name": "Posto de Turismo de Freixo de Espada à Cinta",
    "municipality": "Freixo de Espada à Cinta",
    "address": "Praça Jorge Álvares",
    "phone": "",
    "type": "guia_passaporte",
    "coordinates": {
      "lat": 41.0979,
      "lng": -6.8088
    }
  },
  {
    "name": "Posto de Turismo de Fronteira",
    "municipality": "Fronteira",
    "address": "Av. Heróis dos Atoleiros, 7460-101 Fronteira",
    "phone": "",
    "type": "guia",
    "coordinates": {
      "lat": 39.0533,
      "lng": -7.6522
    }
  },
  {
    "name": "A Moagem – Cidade do Engenho e das Artes",
    "municipality": "Fundão",
    "address": "Largo da Estação, 6230-000 Fundão",
    "phone": "",
    "type": "guia",
    "coordinates": {
      "lat": 40.1342,
      "lng": -7.5021
    }
  },
  {
    "name": "ADXTUR – Agência para o Desenvolvimento Turístico das Aldeias do Xisto",
    "municipality": "Fundão",
    "address": "Casa Grande, 6230 Barroca (Fundão)",
    "phone": "",
    "type": "guia",
    "coordinates": {
      "lat": 40.1342,
      "lng": -7.5021
    }
  },
  {
    "name": "Biblioteca Municipal Eugénio de Andrade",
    "municipality": "Fundão",
    "address": "Rua Conselheiro José Alves Monteiro, 6230-250 Fundão",
    "phone": "",
    "type": "guia",
    "coordinates": {
      "lat": 40.1342,
      "lng": -7.5021
    }
  },
  {
    "name": "Convento do Seixo Boutique Hotel & Spa",
    "municipality": "Fundão",
    "address": "Quinta do Convento, 6230 -000 Fundão",
    "phone": "",
    "type": "guia",
    "coordinates": {
      "lat": 40.1342,
      "lng": -7.5021
    }
  },
  {
    "name": "Câmara Municipal do Fundão",
    "municipality": "Fundão",
    "address": "Praça do Município, 6230-338 Fundão",
    "phone": "",
    "type": "guia",
    "coordinates": {
      "lat": 40.1342,
      "lng": -7.5021
    }
  },
  {
    "name": "Fundão Palace Hotel Sénior Prestige",
    "municipality": "Fundão",
    "address": "EN 18, Quinta Nova, 6230-546 Fundão",
    "phone": "",
    "type": "guia",
    "coordinates": {
      "lat": 40.1342,
      "lng": -7.5021
    }
  },
  {
    "name": "Hotel O Alambique D’Ouro",
    "municipality": "Fundão",
    "address": "EN18 – Sitio da Gramenesa, 6230-463 Fundão",
    "phone": "",
    "type": "guia",
    "coordinates": {
      "lat": 40.1342,
      "lng": -7.5021
    }
  },
  {
    "name": "Hotel Samasa",
    "municipality": "Fundão",
    "address": "Rua Vasco da Gama, 6230-375 Fundão",
    "phone": "",
    "type": "guia",
    "coordinates": {
      "lat": 40.1342,
      "lng": -7.5021
    }
  },
  {
    "name": "Natura Glamping",
    "municipality": "Fundão",
    "address": "Casa do Guarda de Alcongosta, 6230-040 Alcongosta",
    "phone": "",
    "type": "guia",
    "coordinates": {
      "lat": 40.1342,
      "lng": -7.5021
    }
  },
  {
    "name": "Parque Fluvial de Janeiro de Cima",
    "municipality": "Fundão",
    "address": "Rua do Rio, 6185 -000 Janeiro de Cima (Fundão)",
    "phone": "",
    "type": "guia",
    "coordinates": {
      "lat": 40.1342,
      "lng": -7.5021
    }
  },
  {
    "name": "Parque de Campismo do Fundão",
    "municipality": "Fundão",
    "address": "Quinta do Convento – Calçada do Convento, 6230-448 Fundão",
    "phone": "",
    "type": "guia",
    "coordinates": {
      "lat": 40.1342,
      "lng": -7.5021
    }
  },
  {
    "name": "Posto de Turismo de Alpedrinha",
    "municipality": "Fundão",
    "address": "Palácio do Picadeiro, Rua Professor Mesquita Barbosa, 6230-099 Alpedrinha",
    "phone": "",
    "type": "guia",
    "coordinates": {
      "lat": 40.1342,
      "lng": -7.5021
    }
  },
  {
    "name": "Posto de Turismo de Castelo Novo",
    "municipality": "Fundão",
    "address": "Largo da Bica, Castelo Novo",
    "phone": "",
    "type": "guia_passaporte",
    "coordinates": {
      "lat": 40.1024,
      "lng": -7.578
    }
  },
  {
    "name": "Posto de Turismo do Fundão",
    "municipality": "Fundão",
    "address": "Rua 5 de Outubro 11A",
    "phone": "",
    "type": "guia_passaporte",
    "coordinates": {
      "lat": 40.1342,
      "lng": -7.5021
    }
  },
  {
    "name": "Alamal River Club",
    "municipality": "Gavião",
    "address": "Praia Fluvial do Alamal, 6040-101 Gavião",
    "phone": "",
    "type": "guia",
    "coordinates": {
      "lat": 39.4683,
      "lng": -7.9358
    }
  },
  {
    "name": "Bar da Praia Fluvial do Alamal",
    "municipality": "Gavião",
    "address": "Praia Fluvial do Alamal, Quinta do Alamal, 6040-101 Gavião",
    "phone": "",
    "type": "guia",
    "coordinates": {
      "lat": 39.4683,
      "lng": -7.9358
    }
  },
  {
    "name": "Bar da Zona de Lazer da Ribeira da Venda",
    "municipality": "Gavião",
    "address": "Zona de Lazer da Ribeira da Venda, 6040-041 Comenda (Gavião)",
    "phone": "",
    "type": "guia",
    "coordinates": {
      "lat": 39.4683,
      "lng": -7.9358
    }
  },
  {
    "name": "Bar/Restaurante Praia Fluvial do Alamal",
    "municipality": "Gavião",
    "address": "Praia Fluvial do Alamal - Quinta do Alamal",
    "phone": "241 631 221",
    "type": "guia_passaporte",
    "coordinates": {
      "lat": 39.46,
      "lng": -7.94
    }
  },
  {
    "name": "Biblioteca Municipal de Gavião",
    "municipality": "Gavião",
    "address": "Rua Dr. Dias Calazans, 6040-102 Gavião",
    "phone": "",
    "type": "guia",
    "coordinates": {
      "lat": 39.4683,
      "lng": -7.9358
    }
  },
  {
    "name": "Casa Covão da Abitureira",
    "municipality": "Gavião",
    "address": "Turismo de Habitação, Rua da Estação, n.º 3, 6040-024 Belver",
    "phone": "",
    "type": "guia",
    "coordinates": {
      "lat": 39.4683,
      "lng": -7.9358
    }
  },
  {
    "name": "Casa da Boavista",
    "municipality": "Gavião",
    "address": "Rua da Boavista, n.º7 – Cadafaz, 6040-052 Gavião",
    "phone": "",
    "type": "guia",
    "coordinates": {
      "lat": 39.4683,
      "lng": -7.9358
    }
  },
  {
    "name": "Casa das Artes de Gavião",
    "municipality": "Gavião",
    "address": "Rua Dr. Dias Calazans 34, 6040-115 Gavião",
    "phone": "241 639 075",
    "type": "guia_passaporte",
    "coordinates": {
      "lat": 39.4683,
      "lng": -7.9358
    }
  },
  {
    "name": "Casa de Nossa Senhora da Conceição",
    "municipality": "Gavião",
    "address": "Largo do Município, n.º13, 6040-102 Gavião",
    "phone": "",
    "type": "guia",
    "coordinates": {
      "lat": 39.4683,
      "lng": -7.9358
    }
  },
  {
    "name": "Casa do Lagar",
    "municipality": "Gavião",
    "address": "Travessa do Lagar, n.º4, Casa de N.ª Senhora da Conceição, 6040-106 Gavião",
    "phone": "",
    "type": "guia",
    "coordinates": {
      "lat": 39.4683,
      "lng": -7.9358
    }
  },
  {
    "name": "Câmara Municipal de Gavião",
    "municipality": "Gavião",
    "address": "Largo do Município, 6040-102 Gavião",
    "phone": "",
    "type": "guia",
    "coordinates": {
      "lat": 39.4683,
      "lng": -7.9358
    }
  },
  {
    "name": "Herdade da Maxuqueira",
    "municipality": "Gavião",
    "address": "6040-070 Margem (Gavião)",
    "phone": "",
    "type": "guia",
    "coordinates": {
      "lat": 39.4683,
      "lng": -7.9358
    }
  },
  {
    "name": "Museu do Sabão",
    "municipality": "Gavião",
    "address": "Rua de São Miguel 22, 6040-102 Belver (Gavião)",
    "phone": "",
    "type": "guia",
    "coordinates": {
      "lat": 39.4683,
      "lng": -7.9358
    }
  },
  {
    "name": "Núcleo Museológico das Mantas e Tapeçarias de Belver",
    "municipality": "Gavião",
    "address": "N244 – Belver, 6040 024 Belver",
    "phone": "",
    "type": "guia",
    "coordinates": {
      "lat": 39.4683,
      "lng": -7.9358
    }
  },
  {
    "name": "Posto de Turismo de Gavião",
    "municipality": "Gavião",
    "address": "Rua Dr. Eusébio Leão – Largo do Cruzeiro, 6040-102 Gavião",
    "phone": "",
    "type": "guia",
    "coordinates": {
      "lat": 39.4683,
      "lng": -7.9358
    }
  },
  {
    "name": "Quinta da Madressilva",
    "municipality": "Gavião",
    "address": "Rua D. Nuno Álvares Pereira, n.º81, Rua Anselmo Patrício, n.º 5, 6040-024 Belver",
    "phone": "",
    "type": "guia",
    "coordinates": {
      "lat": 39.4683,
      "lng": -7.9358
    }
  },
  {
    "name": "Quinta do Belo-Ver",
    "municipality": "Gavião",
    "address": "Turismo de Habitação, Rua Capitão João Pires, n.º2, 6040-024 Belver",
    "phone": "",
    "type": "guia",
    "coordinates": {
      "lat": 39.4683,
      "lng": -7.9358
    }
  },
  {
    "name": "Quinta do Carvalhal",
    "municipality": "Gavião",
    "address": "6040-100 Gavião",
    "phone": "",
    "type": "guia",
    "coordinates": {
      "lat": 39.4683,
      "lng": -7.9358
    }
  },
  {
    "name": "Quinta do Ribeirinho",
    "municipality": "Gavião",
    "address": "Rua da Fonte, 4 – Vilar da Mó, 6040-034 Belver",
    "phone": "",
    "type": "guia",
    "coordinates": {
      "lat": 39.4683,
      "lng": -7.9358
    }
  },
  {
    "name": "Represa Agroturismo",
    "municipality": "Gavião",
    "address": "Casa de N.ª Senhora da Conceição, Rua Anselmo Patrício, n.º 5, 6040-102 Gavião",
    "phone": "",
    "type": "guia",
    "coordinates": {
      "lat": 39.4683,
      "lng": -7.9358
    }
  },
  {
    "name": "Residencial S. João",
    "municipality": "Gavião",
    "address": "Rua Francisco Ventura, n.º1, 6040-121 Gavião",
    "phone": "",
    "type": "guia",
    "coordinates": {
      "lat": 39.4683,
      "lng": -7.9358
    }
  },
  {
    "name": "Restaurante Zona Balnear da Ribeira Venda",
    "municipality": "Gavião",
    "address": "Ribeira Venda - Comenda",
    "phone": "245 776 064",
    "type": "guia_passaporte",
    "coordinates": {
      "lat": 39.47,
      "lng": -7.95
    }
  },
  {
    "name": "Posto de Turismo da Golegã",
    "municipality": "Golegã",
    "address": "Rua D. Afonso Henriques n.º2, 2150-166 Golegã",
    "phone": "",
    "type": "guia",
    "coordinates": {
      "lat": 39.4006,
      "lng": -8.4925
    }
  },
  {
    "name": "Posto de Turismo de Gondomar",
    "municipality": "Gondomar",
    "address": "Praça Luís de Camões 21",
    "phone": "",
    "type": "guia_passaporte",
    "coordinates": {
      "lat": 41.0369,
      "lng": -8.5319
    }
  },
  {
    "name": "Hotel Eurosol Gouveia",
    "municipality": "Gouveia",
    "address": "Av. 1º Maio, 6290-541 Gouveia",
    "phone": "",
    "type": "guia",
    "coordinates": {
      "lat": 40.4963,
      "lng": -7.5927
    }
  },
  {
    "name": "Hotel Monteneve",
    "municipality": "Gouveia",
    "address": "Av. dos Bombeiros Voluntários, n.º 12, 6290-520 Gouveia",
    "phone": "",
    "type": "guia",
    "coordinates": {
      "lat": 40.4963,
      "lng": -7.5927
    }
  },
  {
    "name": "Madre D´Água Hotel Rural",
    "municipality": "Gouveia",
    "address": "Av. dos Bombeiros Voluntários, n.º 12, 6290-651 Vinhó",
    "phone": "",
    "type": "guia",
    "coordinates": {
      "lat": 40.4963,
      "lng": -7.5927
    }
  },
  {
    "name": "Museu Abel Manta",
    "municipality": "Gouveia",
    "address": "Rua Direita, 6290 Gouveia",
    "phone": "",
    "type": "guia",
    "coordinates": {
      "lat": 40.4963,
      "lng": -7.5927
    }
  },
  {
    "name": "Posto de Turismo de Gouveia",
    "municipality": "Gouveia",
    "address": "Praça Luís de Camões, 6290 Gouveia",
    "phone": "",
    "type": "guia",
    "coordinates": {
      "lat": 40.4963,
      "lng": -7.5927
    }
  },
  {
    "name": "Vale do Rossim Eco Resort",
    "municipality": "Gouveia",
    "address": "Vale do Rossim, 6290 Gouveia",
    "phone": "",
    "type": "guia",
    "coordinates": {
      "lat": 40.4963,
      "lng": -7.5927
    }
  },
  {
    "name": "Biblioteca Municipal Eduardo Lourenço",
    "municipality": "Grândola",
    "address": "Rua Soeiro Viegas, nº 10, 6300-758 Guarda",
    "phone": "",
    "type": "guia",
    "coordinates": {
      "lat": 38.1751,
      "lng": -8.5707
    }
  },
  {
    "name": "Hotel Lusitânia",
    "municipality": "Grândola",
    "address": "Urbanização Quinta das Covas, Lote 34, 6300-389 Guarda",
    "phone": "",
    "type": "guia",
    "coordinates": {
      "lat": 38.1751,
      "lng": -8.5707
    }
  },
  {
    "name": "Hotel Pombeira",
    "municipality": "Grândola",
    "address": "Lugar da Pombeira, 6300-035 Guarda",
    "phone": "",
    "type": "guia",
    "coordinates": {
      "lat": 38.1751,
      "lng": -8.5707
    }
  },
  {
    "name": "Hotel Santos",
    "municipality": "Grândola",
    "address": "R. Tenente Valadim, nº 14, 6300-764 Guarda",
    "phone": "",
    "type": "guia",
    "coordinates": {
      "lat": 38.1751,
      "lng": -8.5707
    }
  },
  {
    "name": "Hotel Vanguarda",
    "municipality": "Grândola",
    "address": "Avenida Monsenhor Mendes do Carmo, 6300-586 Guarda",
    "phone": "",
    "type": "guia",
    "coordinates": {
      "lat": 38.1751,
      "lng": -8.5707
    }
  },
  {
    "name": "Posto de Turismo de Grândola",
    "municipality": "Grândola",
    "address": "Praça D. Jorge, 12 B, 7570-136 Grândola, • GUARDA, Posto de Turismo da Guarda, Guarda Welcome Center, Largo Luís Vaz de Camões, n.º 21, 6300-725 Guarda",
    "phone": "",
    "type": "guia",
    "coordinates": {
      "lat": 38.1751,
      "lng": -8.5707
    }
  },
  {
    "name": "Quinta do Moinho (TN)",
    "municipality": "Grândola",
    "address": "6300-025 Aldeia Viçosa, Parque de Campismo Rossio de Valhelhas, EN 232, 6300-235 Valhelhas",
    "phone": "",
    "type": "guia",
    "coordinates": {
      "lat": 38.1751,
      "lng": -8.5707
    }
  },
  {
    "name": "Bar da Praia Fluvial de Aldeia Viçosa",
    "municipality": "Guarda",
    "address": "Praia Fluvial de Aldeia Viçosa, 6300-025 Aldeia Viçosa",
    "phone": "",
    "type": "guia",
    "seasonal": true,
    "coordinates": {
      "lat": 40.56,
      "lng": -7.22
    }
  },
  {
    "name": "Bar da Praia Fluvial de Valhelhas",
    "municipality": "Guarda",
    "address": "Praia Fluvial de Valhelhas, EN 232, 6300-235 Valhelhas",
    "phone": "",
    "type": "guia",
    "seasonal": true,
    "coordinates": {
      "lat": 40.39,
      "lng": -7.29
    }
  },
  {
    "name": "CIMBSE - Comunidade Intermunicipal Beiras e Serra da Estrela",
    "municipality": "Guarda",
    "address": "Praça Luís de Camões 45, 6300-725 Guarda",
    "phone": "271 205 350",
    "type": "guia_passaporte",
    "coordinates": {
      "lat": 40.5375,
      "lng": -7.268
    }
  },
  {
    "name": "Câmara Municipal da Guarda",
    "municipality": "Guarda",
    "address": "Praça do Município n.º 5A",
    "phone": "",
    "type": "guia_passaporte",
    "coordinates": {
      "lat": 40.5373,
      "lng": -7.2677
    }
  },
  {
    "name": "Posto de Turismo da Guarda",
    "municipality": "Guarda",
    "address": "Praça Luís de Camões, Guarda",
    "phone": "+351 271 205 530",
    "type": "guia",
    "coordinates": {
      "lat": 40.5365,
      "lng": -7.267
    }
  },
  {
    "name": "Loja Interativa de Turismo de Guimarães",
    "municipality": "Guimarães",
    "address": "Praça de S. Tiago, 4810-300 Guimarães",
    "phone": "",
    "type": "guia",
    "coordinates": {
      "lat": 41.4431,
      "lng": -8.2961
    }
  },
  {
    "name": "Posto de Turismo de Guimarães",
    "municipality": "Guimarães",
    "address": "Praça de São Tiago, Guimarães",
    "phone": "",
    "type": "guia",
    "coordinates": {
      "lat": 41.4431,
      "lng": -8.2961
    }
  },
  {
    "name": "Bar da Praia Fluvial da Peneda",
    "municipality": "Góis",
    "address": "Praia Fluvial da Peneda, 3330-000 Góis",
    "phone": "",
    "type": "guia",
    "seasonal": true,
    "coordinates": {
      "lat": 40.14,
      "lng": -8.13
    }
  },
  {
    "name": "Bar da Praia Fluvial de Alvares",
    "municipality": "Góis",
    "address": "Praia Fluvial de Alvares, Góis",
    "phone": "",
    "type": "guia",
    "seasonal": true,
    "coordinates": {
      "lat": 40.15,
      "lng": -8.12
    }
  },
  {
    "name": "Bar da Praia Fluvial do Pego Escuro",
    "municipality": "Góis",
    "address": "Praia Fluvial do Pego Escuro, 3330 Góis",
    "phone": "",
    "type": "guia",
    "seasonal": true,
    "coordinates": {
      "lat": 40.13,
      "lng": -8.14
    }
  },
  {
    "name": "Posto de Turismo Municipal de Góis",
    "municipality": "Góis",
    "address": "Praça da República, 3, 3330-310 Góis",
    "phone": "",
    "type": "guia",
    "coordinates": {
      "lat": 40.1594,
      "lng": -8.1124
    }
  },
  {
    "name": "Posto de Turismo de Góis",
    "municipality": "Góis",
    "address": "Praça da República",
    "phone": "",
    "type": "guia_passaporte",
    "coordinates": {
      "lat": 40.1594,
      "lng": -8.1124
    }
  },
  {
    "name": "Centro Cultural Raiano",
    "municipality": "Idanha-a-Nova",
    "address": "Av. Joaquim Morão, 6060-713 Idanha-a-Nova",
    "phone": "277 202 900",
    "type": "guia_passaporte",
    "coordinates": {
      "lat": 39.928,
      "lng": -7.141
    }
  },
  {
    "name": "Centro de Visitantes de Proença-a-Velha",
    "municipality": "Idanha-a-Nova",
    "address": "Rua do Poço Novo, Proença-a-Velha",
    "phone": "",
    "type": "guia_passaporte",
    "coordinates": {
      "lat": 39.9167,
      "lng": -7.1833
    }
  },
  {
    "name": "Museu Epigráfico Egitaniense — Idanha-a-Velha",
    "municipality": "Idanha-a-Nova",
    "address": "Rua do Lagar, Idanha-a-Velha",
    "phone": "",
    "type": "guia_passaporte",
    "coordinates": {
      "lat": 39.9584,
      "lng": -7.1423
    }
  },
  {
    "name": "Museu de São Pedro de Alcântara — Penha Garcia",
    "municipality": "Idanha-a-Nova",
    "address": "Rua dos Quintais, Penha Garcia",
    "phone": "",
    "type": "guia_passaporte",
    "coordinates": {
      "lat": 40.0396,
      "lng": -7.0671
    }
  },
  {
    "name": "Oficina de Artes Tradicionais de Idanha-a-Nova",
    "municipality": "Idanha-a-Nova",
    "address": "Rua de São Pedro, Idanha-a-Nova",
    "phone": "",
    "type": "guia_passaporte",
    "coordinates": {
      "lat": 39.9278,
      "lng": -7.1406
    }
  },
  {
    "name": "Parque de Campismo de Idanha-a-Nova",
    "municipality": "Idanha-a-Nova",
    "address": "EN 354-1 Km 8, 6060-192 Idanha-a-Nova",
    "phone": "277 201 029",
    "type": "guia_passaporte",
    "coordinates": {
      "lat": 39.9167,
      "lng": -7.15
    }
  },
  {
    "name": "Posto de Turismo de Monsanto",
    "municipality": "Idanha-a-Nova",
    "address": "Rua Marquês da Graciosa, Monsanto",
    "phone": "",
    "type": "guia_passaporte",
    "coordinates": {
      "lat": 40.0449,
      "lng": -7.1158
    }
  },
  {
    "name": "Biblioteca Municipal de Idanha-a-Nova",
    "municipality": "Idanha-a-nova",
    "address": "Zona Nova de Expansão, 6060-101 Idanha-a-Nova",
    "phone": "",
    "type": "guia",
    "coordinates": {
      "lat": 39.9278,
      "lng": -7.1406
    }
  },
  {
    "name": "Clube de Tiro de Monfortinho",
    "municipality": "Idanha-a-nova",
    "address": "EN240 – Km 64, 6060 Termas de Monfortinho",
    "phone": "",
    "type": "guia",
    "coordinates": {
      "lat": 39.9278,
      "lng": -7.1406
    }
  },
  {
    "name": "Câmara Municipal de Idanha-a-Nova",
    "municipality": "Idanha-a-nova",
    "address": "Praça do Município, 6060-163 Idanha a Nova",
    "phone": "",
    "type": "guia",
    "coordinates": {
      "lat": 39.9278,
      "lng": -7.1406
    }
  },
  {
    "name": "Gateway Beira Baixa Terras de Excelência",
    "municipality": "Idanha-a-nova",
    "address": "Estrada Nacional 353, 6060 Idanha-a-Nova",
    "phone": "",
    "type": "guia",
    "coordinates": {
      "lat": 39.9278,
      "lng": -7.1406
    }
  },
  {
    "name": "Hotel Estrela da Idanha",
    "municipality": "Idanha-a-nova",
    "address": "Av. Joaquim Morão Lopes Dias, 6061-909 Idanha a Nova",
    "phone": "",
    "type": "guia",
    "coordinates": {
      "lat": 39.9278,
      "lng": -7.1406
    }
  },
  {
    "name": "Parque de Campismo Municipal de Idanha-a-Nova",
    "municipality": "Idanha-a-nova",
    "address": "EN 354 – 1, Km 8, 6060-192 Idanha-a-Nova",
    "phone": "",
    "type": "guia",
    "coordinates": {
      "lat": 39.9278,
      "lng": -7.1406
    }
  },
  {
    "name": "Posto de Turismo das Termas de Monfortinho",
    "municipality": "Idanha-a-nova",
    "address": "Edifício das Piscinas Municipais, Av. Conde da Covilhã, 6060-062 Idanha-a-Nova (Termas de Monfortinho)",
    "phone": "",
    "type": "guia",
    "coordinates": {
      "lat": 39.9278,
      "lng": -7.1406
    }
  },
  {
    "name": "Posto de Turismo de Idanha-a-Nova",
    "municipality": "Idanha-a-nova",
    "address": "Rua da Senhora do Almortão, 6060-112 Idanha-a-Nova",
    "phone": "",
    "type": "guia",
    "coordinates": {
      "lat": 39.9278,
      "lng": -7.1406
    }
  },
  {
    "name": "Posto de Turismo de Idanha-a-Velha",
    "municipality": "Idanha-a-nova",
    "address": "Rua da Sé, 6060-041 Idanha-a-Velha",
    "phone": "",
    "type": "guia",
    "coordinates": {
      "lat": 39.9278,
      "lng": -7.1406
    }
  },
  {
    "name": "Posto de Turismo de Penha Garcia",
    "municipality": "Idanha-a-nova",
    "address": "Rua do Espírito Santo, 6060-327 Penha Garcia",
    "phone": "",
    "type": "guia",
    "coordinates": {
      "lat": 39.9278,
      "lng": -7.1406
    }
  },
  {
    "name": "Termas de Monfortinho",
    "municipality": "Idanha-a-nova",
    "address": "Balneário Termal, 6060-072 Monfortinho",
    "phone": "",
    "type": "guia",
    "coordinates": {
      "lat": 39.9278,
      "lng": -7.1406
    }
  },
  {
    "name": "Ô Hotel Fonte Santa",
    "municipality": "Idanha-a-nova",
    "address": "6060-072 Termas de Monfortinho",
    "phone": "",
    "type": "guia",
    "coordinates": {
      "lat": 39.9278,
      "lng": -7.1406
    }
  },
  {
    "name": "Posto de Turismo de Carvoeiro",
    "municipality": "Lagoa",
    "address": "Largo da Praia, 8400-517 Carvoeiro",
    "phone": "",
    "type": "guia",
    "coordinates": {
      "lat": 37.1327,
      "lng": -8.4583
    }
  },
  {
    "name": "Posto de Turismo de Lagos",
    "municipality": "Lagos",
    "address": "Antigos Paços do Concelho, Praça Gil Eanes, 8600-668 Lagos",
    "phone": "",
    "type": "guia",
    "coordinates": {
      "lat": 37.1019,
      "lng": -8.6739
    }
  },
  {
    "name": "Posto de Turismo de Lamego",
    "municipality": "Lamego",
    "address": "Av. Visconde Guedes Teixeira, Lamego",
    "phone": "",
    "type": "guia",
    "coordinates": {
      "lat": 41.0951,
      "lng": -7.8126
    }
  },
  {
    "name": "Bar da Praia Fluvial da Lagoa da Ervedeira",
    "municipality": "Leiria",
    "address": "Praia Fluvial da Lagoa da Ervedeira, 2425 Ervedeira",
    "phone": "",
    "type": "guia",
    "seasonal": true,
    "coordinates": {
      "lat": 39.92,
      "lng": -8.83
    }
  },
  {
    "name": "Câmara Municipal de Leiria",
    "municipality": "Leiria",
    "address": "Largo da República",
    "phone": "",
    "type": "guia_passaporte",
    "coordinates": {
      "lat": 39.7498,
      "lng": -8.8082
    }
  },
  {
    "name": "Museu da Água — Leiria",
    "municipality": "Leiria",
    "address": "Rua do Alviela 12",
    "phone": "",
    "type": "guia_passaporte",
    "coordinates": {
      "lat": 39.751,
      "lng": -8.809
    }
  },
  {
    "name": "Posto de Turismo de Leiria",
    "municipality": "Leiria",
    "address": "Jardim Luís de Camões, 2400-172 Leiria",
    "phone": "",
    "type": "guia",
    "coordinates": {
      "lat": 39.749,
      "lng": -8.8075
    }
  },
  {
    "name": "Posto de Turismo de Leiria — Av. da Liberdade",
    "municipality": "Leiria",
    "address": "Av. da Liberdade n.º 24",
    "phone": "",
    "type": "guia_passaporte",
    "coordinates": {
      "lat": 39.7485,
      "lng": -8.8068
    }
  },
  {
    "name": "Posto de Turismo de Leiria — Praça das Amoreiras",
    "municipality": "Leiria",
    "address": "Praça das Amoreiras n.º 10",
    "phone": "",
    "type": "guia_passaporte",
    "coordinates": {
      "lat": 39.748,
      "lng": -8.806
    }
  },
  {
    "name": "Posto de Turismo de Monte Real",
    "municipality": "Leiria",
    "address": "Rua 28 de Maio, Monte Real",
    "phone": "",
    "type": "guia_passaporte",
    "coordinates": {
      "lat": 39.8333,
      "lng": -8.8883
    }
  },
  {
    "name": "Welcome Center de Leiria",
    "municipality": "Leiria",
    "address": "Welcome Center, Leiria",
    "phone": "",
    "type": "guia_passaporte",
    "coordinates": {
      "lat": 39.749,
      "lng": -8.8075
    }
  },
  {
    "name": "A Vida Portuguesa",
    "municipality": "Lisboa",
    "address": "Loja Chiado, Rua Nova do Almada 72, 1700-007",
    "phone": "",
    "type": "guia",
    "coordinates": {
      "lat": 38.7165,
      "lng": -9.1421
    }
  },
  {
    "name": "Ask Me Lisboa — Palácio Foz",
    "municipality": "Lisboa",
    "address": "Praça dos Restauradores, Lisboa",
    "phone": "",
    "type": "guia",
    "coordinates": {
      "lat": 38.7165,
      "lng": -9.1421
    }
  },
  {
    "name": "EPAL",
    "municipality": "Lisboa",
    "address": "Av. da Liberdade 24, 1250-096 Lisboa",
    "phone": "",
    "type": "guia",
    "coordinates": {
      "lat": 38.7165,
      "lng": -9.1421
    }
  },
  {
    "name": "Museu da Água",
    "municipality": "Lisboa",
    "address": "Rua Vila Santos 9, 1070-068 Lisboa",
    "phone": "",
    "type": "guia",
    "coordinates": {
      "lat": 38.7165,
      "lng": -9.1421
    }
  },
  {
    "name": "O Sítio Certo – Loja de Proença-a-Nova",
    "municipality": "Lisboa",
    "address": "Mercado de Benfica, Rua João Frederico Ludovice, 1500 Lisboa",
    "phone": "",
    "type": "guia",
    "coordinates": {
      "lat": 38.7165,
      "lng": -9.1421
    }
  },
  {
    "name": "Padaria Isco",
    "municipality": "Lisboa",
    "address": "R. José d'Esaguy 10D, 1700-267 Lisboa",
    "phone": "",
    "type": "guia",
    "coordinates": {
      "lat": 38.7165,
      "lng": -9.1421
    }
  },
  {
    "name": "Posto de Turismo de Lisboa",
    "municipality": "Lisboa",
    "address": "Aeroporto de Lisboa Alameda das Comunidades Portuguesas, Piso das Chegadas, 1700-007 Lisboa",
    "phone": "",
    "type": "guia",
    "coordinates": {
      "lat": 38.7165,
      "lng": -9.1421
    }
  },
  {
    "name": "Pátio da Água",
    "municipality": "Lisboa",
    "address": "Av. da Liberdade 14, 1250-096 Lisboa",
    "phone": "",
    "type": "guia",
    "coordinates": {
      "lat": 38.7165,
      "lng": -9.1421
    }
  },
  {
    "name": "Posto de Turismo Loulé",
    "municipality": "Loulé",
    "address": "Avenida 25 de Abril, 9, 8100-506 Loulé",
    "phone": "",
    "type": "guia",
    "coordinates": {
      "lat": 37.1395,
      "lng": -8.0238
    }
  },
  {
    "name": "Posto de Turismo Municipal de Salir",
    "municipality": "Loulé",
    "address": "Rua José Viegas Gregório, 8100-202 Salir",
    "phone": "",
    "type": "guia",
    "coordinates": {
      "lat": 37.1395,
      "lng": -8.0238
    }
  },
  {
    "name": "Posto de Turismo de Alte",
    "municipality": "Loulé",
    "address": "Pólo Museológico Cândido Guerreiro e Condes de Alte, 8100-012 Alte (Loulé)",
    "phone": "",
    "type": "guia",
    "coordinates": {
      "lat": 37.1395,
      "lng": -8.0238
    }
  },
  {
    "name": "Posto de Turismo de Querença",
    "municipality": "Loulé",
    "address": "Polo Museológico da Água, Largo da Igreja de N.ª Sra da Assunção – Querença, 8100-495 Querença (Loulé)",
    "phone": "",
    "type": "guia",
    "coordinates": {
      "lat": 37.1395,
      "lng": -8.0238
    }
  },
  {
    "name": "Posto de Turismo de Loures",
    "municipality": "Loures",
    "address": "Pavilhão de Macau, Parque da Cidade, 2670-455 Loures",
    "phone": "",
    "type": "guia",
    "coordinates": {
      "lat": 38.8337,
      "lng": -9.1686
    }
  },
  {
    "name": "Posto de Turismo da Lourinhã",
    "municipality": "Lourinhã",
    "address": "Largo António Granjo, 2530-119 Lourinhã",
    "phone": "",
    "type": "guia",
    "coordinates": {
      "lat": 39.2411,
      "lng": -9.3131
    }
  },
  {
    "name": "Posto de Turismo da Praia da Areia Branca",
    "municipality": "Lourinhã",
    "address": "Largo do Turismo – Praia da Areia Branca, 2530-216 Lourinhã",
    "phone": "",
    "type": "guia",
    "coordinates": {
      "lat": 39.2411,
      "lng": -9.3131
    }
  },
  {
    "name": "Posto Turismo Lousada",
    "municipality": "Lousada",
    "address": "Praça D. António Meireles, 18, 4620-130 Lousada",
    "phone": "",
    "type": "guia",
    "coordinates": {
      "lat": 41.2812,
      "lng": -8.2841
    }
  },
  {
    "name": "Bar da Praia Fluvial da Bogueira",
    "municipality": "Lousã",
    "address": "Praia Fluvial da Bogueira – Casal de Ermio, 3200-029 Foz de Arouce",
    "phone": "",
    "type": "guia",
    "coordinates": {
      "lat": 40.103,
      "lng": -8.2468
    }
  },
  {
    "name": "Bar da Praia Fluvial da Senhora da Piedade",
    "municipality": "Lousã",
    "address": "Ermida da Sra.ª da Piedade — Praia Fluvial da Senhora da Piedade, 3200 Lousã",
    "phone": "",
    "type": "guia",
    "seasonal": true,
    "coordinates": {
      "lat": 40.125,
      "lng": -8.26
    }
  },
  {
    "name": "Bar da Praia Fluvial de Senhora da Graça",
    "municipality": "Lousã",
    "address": "Praia Fluvial de Senhora da Graça — Serpins, Lousã",
    "phone": "",
    "type": "guia",
    "seasonal": true,
    "coordinates": {
      "lat": 40.11,
      "lng": -8.25
    }
  },
  {
    "name": "Casa Princesa Peralta",
    "municipality": "Lousã",
    "address": "3200-120 Talasnal (Lousã)",
    "phone": "",
    "type": "guia",
    "coordinates": {
      "lat": 40.103,
      "lng": -8.2468
    }
  },
  {
    "name": "Casa Vale do Linteiro",
    "municipality": "Lousã",
    "address": "Terra da Gaga, 3200-350 Serpins",
    "phone": "",
    "type": "guia",
    "coordinates": {
      "lat": 40.103,
      "lng": -8.2468
    }
  },
  {
    "name": "Museu Etnográfico Dr. Louzã Henriques",
    "municipality": "Lousã",
    "address": "Rua Dr. João Luso, 3200-114 Lousã",
    "phone": "",
    "type": "guia",
    "coordinates": {
      "lat": 40.103,
      "lng": -8.2468
    }
  },
  {
    "name": "Palácio da Lousã – Boutique Hotel",
    "municipality": "Lousã",
    "address": "R. Viscondessa do Espinhal, 3200-257 Lousã",
    "phone": "",
    "type": "guia",
    "coordinates": {
      "lat": 40.103,
      "lng": -8.2468
    }
  },
  {
    "name": "Parque Municipal de Campismo de Serpins",
    "municipality": "Lousã",
    "address": "Largo da Sr.ª da Graça – Chão de Campos, 3200-358 Serpins",
    "phone": "",
    "type": "guia",
    "coordinates": {
      "lat": 40.103,
      "lng": -8.2468
    }
  },
  {
    "name": "Posto de Turismo Municipal da Lousã",
    "municipality": "Lousã",
    "address": "Museu Etnográfico Dr. Louzã Henriques, Rua Dr. João Luso, 3200-246 Lousã",
    "phone": "",
    "type": "guia",
    "coordinates": {
      "lat": 40.103,
      "lng": -8.2468
    }
  },
  {
    "name": "Posto de Turismo da Lousã",
    "municipality": "Lousã",
    "address": "Museu Municipal Prof. Álvaro Viana de Lemos, Rua Miguel Bombarda, 18, 3200-249 Lousã",
    "phone": "",
    "type": "guia",
    "coordinates": {
      "lat": 40.103,
      "lng": -8.2468
    }
  },
  {
    "name": "Bar da Praia Fluvial da Ribeira",
    "municipality": "Macedo de Cavaleiros",
    "address": "Barragem do Azibo – Praia Fluvial da Ribeira, 5340 Macedo de Cavaleiros",
    "phone": "",
    "type": "guia",
    "coordinates": {
      "lat": 41.5364,
      "lng": -6.9548
    }
  },
  {
    "name": "Bar da Praia Fluvial da Ribeira — Macedo de Cavaleiros",
    "municipality": "Macedo de Cavaleiros",
    "address": "Barragem do Azibo — Praia Fluvial da Ribeira, 5340 Macedo de Cavaleiros",
    "phone": "",
    "type": "guia",
    "seasonal": true,
    "coordinates": {
      "lat": 41.57,
      "lng": -6.95
    }
  },
  {
    "name": "Casa Falcão – Museu de Arte Sacra",
    "municipality": "Macedo de Cavaleiros",
    "address": "Praça dos Segadores, 5340-230 Macedo de Cavaleiros",
    "phone": "",
    "type": "guia",
    "coordinates": {
      "lat": 41.5364,
      "lng": -6.9548
    }
  },
  {
    "name": "Casa do Careto",
    "municipality": "Macedo de Cavaleiros",
    "address": "Rua Central n.º19, 5340-392 Podence (Macedo de Cavaleiros)",
    "phone": "",
    "type": "guia",
    "coordinates": {
      "lat": 41.5364,
      "lng": -6.9548
    }
  },
  {
    "name": "Câmara Municipal de Macedo de Cavaleiros",
    "municipality": "Macedo de Cavaleiros",
    "address": "Rua Fernão Lopes / Largo dos Ferradores",
    "phone": "",
    "type": "guia_passaporte",
    "coordinates": {
      "lat": 41.537,
      "lng": -6.9555
    }
  },
  {
    "name": "Geopark Terras de Cavaleiros",
    "municipality": "Macedo de Cavaleiros",
    "address": "Largo da Estação, 5340-215 Macedo de Cavaleiros",
    "phone": "",
    "type": "guia",
    "coordinates": {
      "lat": 41.5364,
      "lng": -6.9548
    }
  },
  {
    "name": "Gourmet Restaurante e Bar Fraga da Pegada",
    "municipality": "Macedo de Cavaleiros",
    "address": "Barragem do Azibo — Praia Fluvial de Fraga da Pegada, 5340 Macedo de Cavaleiros",
    "phone": "",
    "type": "guia",
    "seasonal": true,
    "coordinates": {
      "lat": 41.58,
      "lng": -6.94
    }
  },
  {
    "name": "Hotel Alendouro",
    "municipality": "Macedo de Cavaleiros",
    "address": "Av. D. Nuno Álvares Pereira n.º 29, 5340-202 Macedo de Cavaleiros",
    "phone": "",
    "type": "guia",
    "coordinates": {
      "lat": 41.5364,
      "lng": -6.9548
    }
  },
  {
    "name": "Hotel Muchacho",
    "municipality": "Macedo de Cavaleiros",
    "address": "Rua Pereira Charula, nº 29, 5340-278 Macedo de Cavaleiros",
    "phone": "",
    "type": "guia",
    "coordinates": {
      "lat": 41.5364,
      "lng": -6.9548
    }
  },
  {
    "name": "Posto de Turismo de Macedo de Cavaleiros",
    "municipality": "Macedo de Cavaleiros",
    "address": "Largo da Estação — Antiga Estação Ferroviária",
    "phone": "",
    "type": "guia_passaporte",
    "coordinates": {
      "lat": 41.5364,
      "lng": -6.9548
    }
  },
  {
    "name": "Posto de Turismo da Ericeira",
    "municipality": "Mafra",
    "address": "Praça da República n.º17, 2655-347 Ericeira",
    "phone": "",
    "type": "guia",
    "coordinates": {
      "lat": 38.9365,
      "lng": -9.3305
    }
  },
  {
    "name": "Posto de Turismo de Mafra",
    "municipality": "Mafra",
    "address": "Palácio Nacional de Mafra – Torreão Sul, Terreiro D. João V, 2640-492 Ericeira",
    "phone": "",
    "type": "guia",
    "coordinates": {
      "lat": 38.9365,
      "lng": -9.3305
    }
  },
  {
    "name": "Posto de Turismo da Maia",
    "municipality": "Maia",
    "address": "Parque Central da Maia – 1º Piso, Loja 19, Rua Simão Bolívar, 4470-214 Maia",
    "phone": "",
    "type": "guia",
    "coordinates": {
      "lat": 41.2357,
      "lng": -8.6202
    }
  },
  {
    "name": "Posto de Turismo de Mangualde",
    "municipality": "Mangualde",
    "address": "Largo Dr. Couto, 3534-004 Mangualde",
    "phone": "",
    "type": "guia",
    "coordinates": {
      "lat": 40.6029,
      "lng": -7.7631
    }
  },
  {
    "name": "Bar da Praia Fluvial da Relva da Reboleira",
    "municipality": "Manteigas",
    "address": "Praia Fluvial da Relva da Reboleira – Sameiro, 6260-311 Manteigas, Parque da Várzea / Centro de BTT, 6260 Manteigas",
    "phone": "",
    "type": "guia",
    "coordinates": {
      "lat": 40.4031,
      "lng": -7.532
    }
  },
  {
    "name": "Biblioteca Municipal de Manteigas",
    "municipality": "Manteigas",
    "address": "Rua 1.º de Maio n.º41 – 51, 6260-101 Manteigas",
    "phone": "",
    "type": "guia",
    "coordinates": {
      "lat": 40.4031,
      "lng": -7.532
    }
  },
  {
    "name": "CIVGLAZ – Centro de Interpretativo do Vale Glaciar do Zêzere",
    "municipality": "Manteigas",
    "address": "Fonte Santa – Manteigas (Junto ao Viveiro das Trutas), 6260-000 Manteigas",
    "phone": "",
    "type": "guia",
    "coordinates": {
      "lat": 40.4031,
      "lng": -7.532
    }
  },
  {
    "name": "Casa das Penhas Douradas",
    "municipality": "Manteigas",
    "address": "Penhas Douradas, 6260-200 Manteigas",
    "phone": "",
    "type": "guia",
    "coordinates": {
      "lat": 40.4031,
      "lng": -7.532
    }
  },
  {
    "name": "Câmara Municipal de Manteigas",
    "municipality": "Manteigas",
    "address": "Rua 1.º de Maio, 6260-101 Manteigas",
    "phone": "",
    "type": "guia",
    "coordinates": {
      "lat": 40.4031,
      "lng": -7.532
    }
  },
  {
    "name": "Espaço Internet de Manteigas",
    "municipality": "Manteigas",
    "address": "Rua 1.º de Maio, 6260-101 Manteigas",
    "phone": "",
    "type": "guia",
    "coordinates": {
      "lat": 40.4031,
      "lng": -7.532
    }
  },
  {
    "name": "Hotel Berne",
    "municipality": "Manteigas",
    "address": "Quinta de Santo António, Manteigas 6260-130",
    "phone": "",
    "type": "guia",
    "coordinates": {
      "lat": 40.4031,
      "lng": -7.532
    }
  },
  {
    "name": "Hotel Restaurante Vale do Zêzere",
    "municipality": "Manteigas",
    "address": "Quinta de Santo António,, Estrada da Lapa, 6260-191 Manteigas",
    "phone": "",
    "type": "guia",
    "coordinates": {
      "lat": 40.4031,
      "lng": -7.532
    }
  },
  {
    "name": "Inatel Serra da Estrela",
    "municipality": "Manteigas",
    "address": "Caldas de Manteigas, 6260-012 Manteigas",
    "phone": "",
    "type": "guia",
    "coordinates": {
      "lat": 40.4031,
      "lng": -7.532
    }
  },
  {
    "name": "Piscinas Municipais Descobertas de Manteigas",
    "municipality": "Manteigas",
    "address": "Rua dos Serviços Florestais, 6260-182 Manteigas",
    "phone": "",
    "type": "guia",
    "coordinates": {
      "lat": 40.4031,
      "lng": -7.532
    }
  },
  {
    "name": "Posto de Turismo de Manteigas",
    "municipality": "Manteigas",
    "address": "Rua Dr. Esteves de Carvalho 2, 6260-130 Manteigas",
    "phone": "",
    "type": "guia",
    "coordinates": {
      "lat": 40.4031,
      "lng": -7.532
    }
  },
  {
    "name": "Quinta de Leandres",
    "municipality": "Manteigas",
    "address": "Souto do Concelho, 6260-000 Manteigas",
    "phone": "",
    "type": "guia",
    "coordinates": {
      "lat": 40.4031,
      "lng": -7.532
    }
  },
  {
    "name": "Posto de Turismo de Marco de Canaveses",
    "municipality": "Marco de Canaveses",
    "address": "Alameda Dr. Miranda da Rocha, Marco de Canaveses",
    "phone": "",
    "type": "guia",
    "coordinates": {
      "lat": 41.185,
      "lng": -8.1499
    }
  },
  {
    "name": "Posto de Turismo do Marco de Canaveses",
    "municipality": "Marco de Canaveses",
    "address": "Alameda Dr. Miranda da Rocha, 4630-200 Marco de Canaveses",
    "phone": "",
    "type": "guia",
    "coordinates": {
      "lat": 41.185,
      "lng": -8.1499
    }
  },
  {
    "name": "Museu do Vidro da Marinha Grande",
    "municipality": "Marinha Grande",
    "address": "Praça Guilherme Stephens, 2430-520 Marinha Grande",
    "phone": "",
    "type": "guia",
    "coordinates": {
      "lat": 39.7456,
      "lng": -8.9335
    }
  },