[
  { "name": "Posto de Turismo de Arcos de Valdevez", "municipality": "Arcos de Valdevez", "address": "Rua Luís de Camões 20A", "phone": "", "type": "guia_passaporte", "coordinates": { "lat": 41.8489, "lng": -8.4139 } },
  { "name": "Posto de Turismo de Arganil", "municipality": "Arganil", "address": "Av. das Forças Armadas", "phone": "", "type": "guia_passaporte", "coordinates": { "lat": 40.2216, "lng": -8.0641 } },
  { "name": "Câmara Municipal de Arganil", "municipality": "Arganil", "address": "Largo Cónego Manuel Fernandes Nogueira", "phone": "", "type": "guia_passaporte", "coordinates": { "lat": 40.2220, "lng": -8.0648 } },
  { "name": "Posto de Turismo de Braga", "municipality": "Braga", "address": "Av. da Liberdade n.º 1", "phone": "", "type": "guia_passaporte", "coordinates": { "lat": 41.5454, "lng": -8.4265 } },
  { "name": "Casa do Tempo — Castanheira de Pera", "municipality": "Castanheira de Pera", "address": "Rua Dr. José Fernandes de Carvalho", "phone": "", "type": "guia_passaporte", "coordinates": { "lat": 40.0000, "lng": -8.2070 } },
  { "name": "Posto de Turismo de Castelo Branco", "municipality": "Castelo Branco", "address": "Av. Nuno Álvares n.º 30", "phone": "", "type": "guia_passaporte", "coordinates": { "lat": 39.8208, "lng": -7.4913 } },
  { "name": "Posto de Turismo de Coimbra", "municipality": "Coimbra", "address": "Rua Ferreira Borges 20", "phone": "", "type": "guia_passaporte", "coordinates": { "lat": 40.2088, "lng": -8.4280 } },
  { "name": "Posto de Turismo de Coimbra — Baixa", "municipality": "Coimbra", "address": "Rua António Granjo n.º 6", "phone": "", "type": "guia_passaporte", "coordinates": { "lat": 40.2094, "lng": -8.4275 } },
  { "name": "Posto de Turismo de Constância", "municipality": "Constância", "address": "Rua Luís de Camões n.º 2", "phone": "", "type": "guia_passaporte", "coordinates": { "lat": 39.4724, "lng": -8.3329 } },
  { "name": "Loja do Montado — Coruche", "municipality": "Coruche", "address": "Loja do Montado, Coruche", "phone": "", "type": "guia_passaporte", "coordinates": { "lat": 38.9638, "lng": -8.5236 } },
  { "name": "Posto de Turismo Municipal da Covilhã", "municipality": "Covilhã", "address": "Praça do Município", "phone": "", "type": "guia_passaporte", "coordinates": { "lat": 40.2801, "lng": -7.5039 } },
  { "name": "Posto de Turismo de Ferreira do Zêzere", "municipality": "Ferreira do Zêzere", "address": "Praça Dias Ferreira", "phone": "", "type": "guia_passaporte", "coordinates": { "lat": 39.6987, "lng": -8.2907 } },
  { "name": "Centro de Informação de Dornes", "municipality": "Ferreira do Zêzere", "address": "Rua Guilherme Pavia n.º 7, Dornes", "phone": "", "type": "guia_passaporte", "coordinates": { "lat": 39.6831, "lng": -8.3192 } },
  { "name": "Museu e Centro de Artes de Figueiró dos Vinhos", "municipality": "Figueiró dos Vinhos", "address": "Av. José Malhoa", "phone": "", "type": "guia_passaporte", "coordinates": { "lat": 39.9064, "lng": -8.2776 } },
  { "name": "Posto de Turismo de Fornos de Algodres", "municipality": "Fornos de Algodres", "address": "Fornos de Algodres", "phone": "", "type": "guia_passaporte", "coordinates": { "lat": 40.6222, "lng": -7.5337 } },
  { "name": "Posto de Turismo de Freixo de Espada à Cinta", "municipality": "Freixo de Espada à Cinta", "address": "Praça Jorge Álvares", "phone": "", "type": "guia_passaporte", "coordinates": { "lat": 41.0979, "lng": -6.8088 } },
  { "name": "Posto de Turismo do Fundão", "municipality": "Fundão", "address": "Rua 5 de Outubro 11A", "phone": "", "type": "guia_passaporte", "coordinates": { "lat": 40.1342, "lng": -7.5021 } },
  { "name": "Posto de Turismo de Castelo Novo", "municipality": "Fundão", "address": "Largo da Bica, Castelo Novo", "phone": "", "type": "guia_passaporte", "coordinates": { "lat": 40.1024, "lng": -7.5780 } },
  { "name": "Posto de Turismo de Góis", "municipality": "Góis", "address": "Praça da República", "phone": "", "type": "guia_passaporte", "coordinates": { "lat": 40.1594, "lng": -8.1124 } },
  { "name": "Posto de Turismo de Gondomar", "municipality": "Gondomar", "address": "Praça Luís de Camões 21", "phone": "", "type": "guia_passaporte", "coordinates": { "lat": 41.0369, "lng": -8.5319 } },
  { "name": "Câmara Municipal da Guarda", "municipality": "Guarda", "address": "Praça do Município n.º 5A", "phone": "", "type": "guia_passaporte", "coordinates": { "lat": 40.5373, "lng": -7.2677 } },
  { "name": "Oficina de Artes Tradicionais de Idanha-a-Nova", "municipality": "Idanha-a-Nova", "address": "Rua de São Pedro, Idanha-a-Nova", "phone": "", "type": "guia_passaporte", "coordinates": { "lat": 39.9278, "lng": -7.1406 } },
  { "name": "Museu de São Pedro de Alcântara — Penha Garcia", "municipality": "Idanha-a-Nova", "address": "Rua dos Quintais, Penha Garcia", "phone": "", "type": "guia_passaporte", "coordinates": { "lat": 40.0396, "lng": -7.0671 } },
  { "name": "Posto de Turismo de Monsanto", "municipality": "Idanha-a-Nova", "address": "Rua Marquês da Graciosa, Monsanto", "phone": "", "type": "guia_passaporte", "coordinates": { "lat": 40.0449, "lng": -7.1158 } },
  { "name": "Museu Epigráfico Egitaniense — Idanha-a-Velha", "municipality": "Idanha-a-Nova", "address": "Rua do Lagar, Idanha-a-Velha", "phone": "", "type": "guia_passaporte", "coordinates": { "lat": 39.9584, "lng": -7.1423 } },
  { "name": "Centro de Visitantes de Proença-a-Velha", "municipality": "Idanha-a-Nova", "address": "Rua do Poço Novo, Proença-a-Velha", "phone": "", "type": "guia_passaporte", "coordinates": { "lat": 39.9167, "lng": -7.1833 } },
  { "name": "Welcome Center de Leiria", "municipality": "Leiria", "address": "Welcome Center, Leiria", "phone": "", "type": "guia_passaporte", "coordinates": { "lat": 39.7490, "lng": -8.8075 } },
  { "name": "Posto de Turismo de Monte Real", "municipality": "Leiria", "address": "Rua 28 de Maio, Monte Real", "phone": "", "type": "guia_passaporte", "coordinates": { "lat": 39.8333, "lng": -8.8883 } },
  { "name": "Câmara Municipal de Leiria", "municipality": "Leiria", "address": "Largo da República", "phone": "", "type": "guia_passaporte", "coordinates": { "lat": 39.7498, "lng": -8.8082 } },
  { "name": "Posto de Turismo de Leiria — Av. da Liberdade", "municipality": "Leiria", "address": "Av. da Liberdade n.º 24", "phone": "", "type": "guia_passaporte", "coordinates": { "lat": 39.7485, "lng": -8.8068 } },
  { "name": "Museu da Água — Leiria", "municipality": "Leiria", "address": "Rua do Alviela 12", "phone": "", "type": "guia_passaporte", "coordinates": { "lat": 39.7510, "lng": -8.8090 } },
  { "name": "Posto de Turismo de Leiria — Praça das Amoreiras", "municipality": "Leiria", "address": "Praça das Amoreiras n.º 10", "phone": "", "type": "guia_passaporte", "coordinates": { "lat": 39.7480, "lng": -8.8060 } },
  { "name": "Posto de Turismo de Mação", "municipality": "Mação", "address": "Largo dos Bombeiros Voluntários", "phone": "", "type": "guia_passaporte", "coordinates": { "lat": 39.5564, "lng": -7.9924 } },
  { "name": "Posto de Turismo de Macedo de Cavaleiros", "municipality": "Macedo de Cavaleiros", "address": "Largo da Estação — Antiga Estação Ferroviária", "phone": "", "type": "guia_passaporte", "coordinates": { "lat": 41.5364, "lng": -6.9548 } },
  { "name": "Câmara Municipal de Macedo de Cavaleiros", "municipality": "Macedo de Cavaleiros", "address": "Rua Fernão Lopes / Largo dos Ferradores", "phone": "", "type": "guia_passaporte", "coordinates": { "lat": 41.5370, "lng": -6.9555 } },
  { "name": "Posto de Turismo de Mirandela", "municipality": "Mirandela", "address": "Rua D. Afonso III (junto à Estação CP)", "phone": "", "type": "guia_passaporte", "coordinates": { "lat": 41.4848, "lng": -7.1836 } },
  { "name": "Centro de Informação de Mirandela", "municipality": "Mirandela", "address": "Rua da Ponte Romana, Mirandela", "phone": "", "type": "guia_passaporte", "coordinates": { "lat": 41.4855, "lng": -7.1842 } },
  { "name": "Museu da Oliveira e do Azeite — Mirandela", "municipality": "Mirandela", "address": "Mirandela", "phone": "", "type": "guia_passaporte", "coordinates": { "lat": 41.4840, "lng": -7.1828 } },
  { "name": "Posto de Turismo de Santa Clara-a-Velha", "municipality": "Odemira", "address": "Santa Clara-a-Velha", "phone": "", "type": "guia_passaporte", "coordinates": { "lat": 37.7167, "lng": -8.2667 } },
  { "name": "Posto de Turismo de Odemira", "municipality": "Odemira", "address": "Odemira", "phone": "", "type": "guia_passaporte", "coordinates": { "lat": 37.5983, "lng": -8.6310 } },
  { "name": "Posto de Turismo de Vila Nova de Milfontes", "municipality": "Odemira", "address": "Rua António Mantas, Vila Nova de Milfontes", "phone": "", "type": "guia_passaporte", "coordinates": { "lat": 37.7282, "lng": -8.7836 } },
  { "name": "Posto de Turismo da Zambujeira do Mar", "municipality": "Odemira", "address": "Rua da Escola, Zambujeira do Mar", "phone": "", "type": "guia_passaporte", "coordinates": { "lat": 37.5228, "lng": -8.7919 } },
  { "name": "Posto de Turismo do Almograve", "municipality": "Odemira", "address": "Rua do Chafariz, Almograve", "phone": "", "type": "guia_passaporte", "coordinates": { "lat": 37.6667, "lng": -8.7333 } },
  { "name": "Câmara Municipal de Oleiros", "municipality": "Oleiros", "address": "Praça do Município, Oleiros", "phone": "", "type": "guia_passaporte", "coordinates": { "lat": 39.9137, "lng": -7.9151 } },
  { "name": "Câmara Municipal de Oliveira de Frades", "municipality": "Oliveira de Frades", "address": "Largo Dr. Joaquim de Almeida 111", "phone": "", "type": "guia_passaporte", "coordinates": { "lat": 40.7334, "lng": -8.1763 } },
  { "name": "Posto de Turismo de Oliveira do Hospital", "municipality": "Oliveira do Hospital", "address": "Rua do Colégio", "phone": "", "type": "guia_passaporte", "coordinates": { "lat": 40.3598, "lng": -7.8633 } },
  { "name": "Biblioteca Municipal de Oliveira do Hospital", "municipality": "Oliveira do Hospital", "address": "Largo Ribeiro do Amaral", "phone": "", "type": "guia_passaporte", "coordinates": { "lat": 40.3603, "lng": -7.8640 } },
  { "name": "Welcome Center de Fátima", "municipality": "Ourém", "address": "Av. de Dom José Alves Correia da Silva 213, Fátima", "phone": "", "type": "guia_passaporte", "coordinates": { "lat": 39.6260, "lng": -8.6740 } },
  { "name": "Posto de Turismo de Ourém", "municipality": "Ourém", "address": "Largo do Pelourinho — Castelo — Vila Medieval", "phone": "", "type": "guia_passaporte", "coordinates": { "lat": 39.6518, "lng": -8.5799 } },
  { "name": "Posto de Turismo de Pedrógão Grande (EN2)", "municipality": "Pedrógão Grande", "address": "Av. Padre Manuel Antunes, Pedrógão Grande EN2", "phone": "", "type": "guia_passaporte", "coordinates": { "lat": 39.9178, "lng": -8.1487 } },
  { "name": "Centro de Interpretação Turística de Pedrógão Grande", "municipality": "Pedrógão Grande", "address": "Pedrógão Grande", "phone": "", "type": "guia_passaporte", "coordinates": { "lat": 39.9185, "lng": -8.1494 } },
  { "name": "Câmara Municipal de Pedrógão Grande", "municipality": "Pedrógão Grande", "address": "Largo da Devesa", "phone": "", "type": "guia_passaporte", "coordinates": { "lat": 39.9172, "lng": -8.1480 } },
  { "name": "Posto de Turismo de Penacova", "municipality": "Penacova", "address": "Largo Alberto Leitão 5", "phone": "", "type": "guia_passaporte", "coordinates": { "lat": 40.2714, "lng": -8.2847 } },
  { "name": "Museu Municipal de Penamacor", "municipality": "Penamacor", "address": "Largo Tenente Coronel Júlio Rodrigues da Silva", "phone": "", "type": "guia_passaporte", "coordinates": { "lat": 40.1664, "lng": -7.1759 } },
  { "name": "Câmara Municipal de Penamacor", "municipality": "Penamacor", "address": "Largo do Município, Penamacor", "phone": "", "type": "guia_passaporte", "coordinates": { "lat": 40.1670, "lng": -7.1765 } },
  { "name": "Posto de Turismo de Penela", "municipality": "Penela", "address": "Praça do Município 13", "phone": "", "type": "guia_passaporte", "coordinates": { "lat": 40.0281, "lng": -8.3836 } },
  { "name": "Centro de Artes e Cultura de Ponte de Sor", "municipality": "Ponte de Sor", "address": "Av. da Liberdade n.º 64 F", "phone": "", "type": "guia_passaporte", "coordinates": { "lat": 39.2481, "lng": -8.0133 } },
  { "name": "Centro Cultural de Montargil", "municipality": "Ponte de Sor", "address": "Rua Luís de Camões n.º 16, Montargil", "phone": "", "type": "guia_passaporte", "coordinates": { "lat": 39.0800, "lng": -8.1600 } },
  { "name": "Posto de Turismo de Portel", "municipality": "Portel", "address": "Rua de Santiago 32", "phone": "", "type": "guia_passaporte", "coordinates": { "lat": 38.3092, "lng": -7.7025 } },
  { "name": "Posto de Turismo de Proença-a-Nova", "municipality": "Proença-a-Nova", "address": "Rua da Rossio 1", "phone": "", "type": "guia_passaporte", "coordinates": { "lat": 39.7527, "lng": -7.9216 } },
  { "name": "Câmara Municipal de Proença-a-Nova", "municipality": "Proença-a-Nova", "address": "Av. do Colégio s/n", "phone": "", "type": "guia_passaporte", "coordinates": { "lat": 39.7534, "lng": -7.9223 } },
  { "name": "Posto de Turismo de Monsaraz", "municipality": "Reguengos de Monsaraz", "address": "Rua Direita 24, Monsaraz", "phone": "", "type": "guia_passaporte", "coordinates": { "lat": 38.4440, "lng": -7.3833 } },
  { "name": "Posto de Turismo de Reguengos de Monsaraz", "municipality": "Reguengos de Monsaraz", "address": "Rua António José de Almeida 11", "phone": "", "type": "guia_passaporte", "coordinates": { "lat": 38.4284, "lng": -7.5354 } },
  { "name": "Museu do Sabugal", "municipality": "Sabugal", "address": "Largo de S. Tiago", "phone": "", "type": "guia_passaporte", "coordinates": { "lat": 40.3531, "lng": -7.0897 } },
  { "name": "Posto de Turismo de Sortelha", "municipality": "Sabugal", "address": "Largo do Corro, Sortelha", "phone": "", "type": "guia_passaporte", "coordinates": { "lat": 40.3450, "lng": -7.0967 } },
  { "name": "Posto de Turismo das Termas de São Pedro do Sul", "municipality": "São Pedro do Sul", "address": "Praça Dr. António José de Almeida, Termas de São Pedro do Sul", "phone": "", "type": "guia_passaporte", "coordinates": { "lat": 40.7627, "lng": -8.0665 } },
  { "name": "Câmara Municipal de São Pedro do Sul", "municipality": "São Pedro do Sul", "address": "Largo de Camões", "phone": "", "type": "guia_passaporte", "coordinates": { "lat": 40.7620, "lng": -8.0658 } },
  { "name": "Casa da Cultura de Sátão", "municipality": "Sátão", "address": "Rua Travessa do Clube n.º 21", "phone": "", "type": "guia_passaporte", "coordinates": { "lat": 40.7459, "lng": -7.7312 } },
  { "name": "Posto de Turismo de Seia", "municipality": "Seia", "address": "Rua Pintor Lucas Marrão", "phone": "", "type": "guia_passaporte", "coordinates": { "lat": 40.4180, "lng": -7.7010 } },
  { "name": "Centro de Informação de Loriga", "municipality": "Seia", "address": "Loriga", "phone": "", "type": "guia_passaporte", "coordinates": { "lat": 40.3338, "lng": -7.6720 } },
  { "name": "Posto de Turismo do Sabugueiro", "municipality": "Seia", "address": "Rua Nossa Senhora de Fátima, Sabugueiro", "phone": "", "type": "guia_passaporte", "coordinates": { "lat": 40.3800, "lng": -7.6500 } },
  { "name": "Centro das Artes de Sernancelhe", "municipality": "Sernancelhe", "address": "Av. Dr. Oliveira Serrão n.º 6", "phone": "", "type": "guia_passaporte", "coordinates": { "lat": 40.9174, "lng": -7.4913 } },
  { "name": "Posto de Turismo da Sertã (EN2)", "municipality": "Sertã", "address": "Av. Padre Manuel Antunes, Sertã EN2", "phone": "", "type": "guia_passaporte", "coordinates": { "lat": 39.8051, "lng": -8.0970 } },
  { "name": "Câmara Municipal da Sertã", "municipality": "Sertã", "address": "Largo do Município n.º 14", "phone": "", "type": "guia_passaporte", "coordinates": { "lat": 39.8058, "lng": -8.0977 } },
  { "name": "Câmara Municipal de Tábua", "municipality": "Tábua", "address": "Praça da República", "phone": "", "type": "guia_passaporte", "coordinates": { "lat": 40.3633, "lng": -8.0268 } },
  { "name": "Posto de Turismo de Tomar", "municipality": "Tomar", "address": "Av. Dr. Cândido Madureira n.º 531", "phone": "", "type": "guia_passaporte", "coordinates": { "lat": 39.6036, "lng": -8.4117 } },
  { "name": "Centro de Informação de Tomar", "municipality": "Tomar", "address": "Rua Dr. João Germano Neves da Silva n.º 5", "phone": "", "type": "guia_passaporte", "coordinates": { "lat": 39.6043, "lng": -8.4124 } },
  { "name": "Posto de Turismo de Vila de Rei", "municipality": "Vila de Rei", "address": "Câmara Municipal de Vila de Rei, Praça Família Mattos e Silva Neves", "phone": "", "type": "guia_passaporte", "coordinates": { "lat": 39.6801, "lng": -8.1466 } },
  { "name": "Posto de Turismo de Vinhais", "municipality": "Vinhais", "address": "Praça do Município", "phone": "", "type": "guia_passaporte", "coordinates": { "lat": 41.8360, "lng": -7.0083 } },
  { "name": "Câmara Municipal de Vinhais", "municipality": "Vinhais", "address": "Rua das Freiras n.º 13", "phone": "", "type": "guia_passaporte", "coordinates": { "lat": 41.8367, "lng": -7.0090 } },

  { "name": "Welcome Center de Abrantes", "municipality": "Abrantes", "address": "Praça Raimundo Soares, Abrantes", "phone": "+351 241 361 101", "type": "guia", "coordinates": { "lat": 39.4622, "lng": -8.1977 } },
  { "name": "Posto de Turismo de Aveiro", "municipality": "Aveiro", "address": "Rua João Mendonça 8, Aveiro", "phone": "", "type": "guia", "coordinates": { "lat": 40.6405, "lng": -8.6538 } },
  { "name": "Posto de Turismo de Beja", "municipality": "Beja", "address": "Rua Capitão João Francisco de Sousa 25, Beja", "phone": "", "type": "guia", "coordinates": { "lat": 38.0156, "lng": -7.8644 } },
  { "name": "Posto de Turismo de Bragança", "municipality": "Bragança", "address": "Av. Cidade de Zamora, Bragança", "phone": "+351 273 381 273", "type": "guia", "coordinates": { "lat": 41.8061, "lng": -6.7573 } },
  { "name": "Posto de Turismo de Chaves", "municipality": "Chaves", "address": "Termas de Chaves, Chaves", "phone": "", "type": "guia", "coordinates": { "lat": 41.7381, "lng": -7.4690 } },
  { "name": "Posto de Turismo de Évora", "municipality": "Évora", "address": "Praça do Giraldo, Évora", "phone": "+351 266 777 071", "type": "guia", "coordinates": { "lat": 38.5710, "lng": -7.9073 } },
  { "name": "Posto de Turismo de Faro", "municipality": "Faro", "address": "Rua da Misericórdia 8, Faro", "phone": "", "type": "guia", "coordinates": { "lat": 37.0193, "lng": -7.9304 } },
  { "name": "Ask Me Lisboa — Palácio Foz", "municipality": "Lisboa", "address": "Praça dos Restauradores, Lisboa", "phone": "", "type": "guia", "coordinates": { "lat": 38.7165, "lng": -9.1421 } },
  { "name": "Posto de Turismo de Portalegre", "municipality": "Portalegre", "address": "Rossio, Portalegre", "phone": "+351 245 307 445", "type": "guia", "coordinates": { "lat": 39.2973, "lng": -7.4315 } },
  { "name": "Posto de Turismo do Porto", "municipality": "Porto", "address": "Rua Clube dos Fenianos 25, Porto", "phone": "", "type": "guia", "coordinates": { "lat": 41.1490, "lng": -8.6102 } },
  { "name": "Posto de Turismo de Santarém", "municipality": "Santarém", "address": "Rua Capelo e Ivens 63, Santarém", "phone": "", "type": "guia", "coordinates": { "lat": 39.2368, "lng": -8.6857 } },
  { "name": "Posto de Turismo de Setúbal", "municipality": "Setúbal", "address": "Praça do Bocage, Setúbal", "phone": "", "type": "guia", "coordinates": { "lat": 38.5243, "lng": -8.8882 } },
  { "name": "Posto de Turismo de Viana do Castelo", "municipality": "Viana do Castelo", "address": "Praça do Erva, Viana do Castelo", "phone": "", "type": "guia", "coordinates": { "lat": 41.6918, "lng": -8.8344 } },
  { "name": "Posto de Turismo de Vila Real", "municipality": "Vila Real", "address": "Av. Carvalho Araújo, Vila Real", "phone": "+351 259 322 819", "type": "guia", "coordinates": { "lat": 41.2960, "lng": -7.7440 } },
  { "name": "Posto de Turismo de Viseu", "municipality": "Viseu", "address": "Adro da Sé, Viseu", "phone": "+351 232 420 950", "type": "guia", "coordinates": { "lat": 40.6566, "lng": -7.9126 } },
  { "name": "Posto de Turismo de Guimarães", "municipality": "Guimarães", "address": "Praça de São Tiago, Guimarães", "phone": "", "type": "guia", "coordinates": { "lat": 41.4431, "lng": -8.2961 } },
  { "name": "Posto de Turismo de Torres Novas", "municipality": "Torres Novas", "address": "Praça 5 de Outubro, Torres Novas", "phone": "", "type": "guia", "coordinates": { "lat": 39.4804, "lng": -8.5404 } },
  { "name": "Posto de Turismo de Alcobaça", "municipality": "Alcobaça", "address": "Praça 25 de Abril, Alcobaça", "phone": "", "type": "guia", "coordinates": { "lat": 39.5519, "lng": -8.9783 } },
  { "name": "Posto de Turismo da Batalha", "municipality": "Batalha", "address": "Praça Mouzinho de Albuquerque, Batalha", "phone": "", "type": "guia", "coordinates": { "lat": 39.6585, "lng": -8.8243 } },
  { "name": "Posto de Turismo de Caldas da Rainha", "municipality": "Caldas da Rainha", "address": "Rua Engenheiro Duarte Pacheco, Caldas da Rainha", "phone": "", "type": "guia", "coordinates": { "lat": 39.4018, "lng": -9.1354 } },
  { "name": "Posto de Turismo de Castelo de Vide", "municipality": "Castelo de Vide", "address": "Praça Dom Pedro V, Castelo de Vide", "phone": "", "type": "guia", "coordinates": { "lat": 39.4167, "lng": -7.4543 } },
  { "name": "Posto de Turismo da Figueira da Foz", "municipality": "Figueira da Foz", "address": "Av. 25 de Abril, Figueira da Foz", "phone": "", "type": "guia", "coordinates": { "lat": 40.1503, "lng": -8.8598 } },
  { "name": "Posto de Turismo de Lamego", "municipality": "Lamego", "address": "Av. Visconde Guedes Teixeira, Lamego", "phone": "", "type": "guia", "coordinates": { "lat": 41.0951, "lng": -7.8126 } },
  { "name": "Posto de Turismo de Miranda do Douro", "municipality": "Miranda do Douro", "address": "Praça do Castelo, Miranda do Douro", "phone": "", "type": "guia", "coordinates": { "lat": 41.4969, "lng": -6.2749 } },
  { "name": "Posto de Turismo de Monção", "municipality": "Monção", "address": "Praça Deu-la-Deu, Monção", "phone": "", "type": "guia", "coordinates": { "lat": 42.0763, "lng": -8.4801 } },
  { "name": "Posto de Turismo de Pombal", "municipality": "Pombal", "address": "Av. Heróis do Ultramar, Pombal", "phone": "", "type": "guia", "coordinates": { "lat": 39.9169, "lng": -8.6280 } },
  { "name": "Posto de Turismo da Guarda", "municipality": "Guarda", "address": "Praça Luís de Camões, Guarda", "phone": "+351 271 205 530", "type": "guia", "coordinates": { "lat": 40.5365, "lng": -7.2670 } }
]
