[
  { "name": "Posto de Turismo de Braga", "municipality": "Braga", "district": "Braga", "address": "Praça da República, 4710-305 Braga", "phone": "+351 253 262 550", "services": ["guia"], "coordinates": { "lat": 41.5503, "lng": -8.4201 } },
  { "name": "Posto de Turismo de Coimbra", "municipality": "Coimbra", "district": "Coimbra", "address": "Largo da Portagem, 3000-337 Coimbra", "phone": "+351 239 488 120", "services": ["guia"], "coordinates": { "lat": 40.2088, "lng": -8.4280 } },
  { "name": "Posto de Turismo de Viseu", "municipality": "Viseu", "district": "Viseu", "address": "Adro da Sé, 3500-195 Viseu", "phone": "+351 232 420 950", "services": ["guia"], "coordinates": { "lat": 40.6566, "lng": -7.9126 } },
  { "name": "Posto de Turismo de Guarda", "municipality": "Guarda", "district": "Guarda", "address": "Praça Luís de Camões, 6300-725 Guarda", "phone": "+351 271 205 530", "services": ["guia"], "coordinates": { "lat": 40.5373, "lng": -7.2677 } },
  { "name": "Posto de Turismo de Castelo Branco", "municipality": "Castelo Branco", "district": "Castelo Branco", "address": "Alameda da Liberdade, 6000-767 Castelo Branco", "phone": "+351 272 330 339", "services": ["guia"], "coordinates": { "lat": 39.8225, "lng": -7.4910 } },
  { "name": "Welcome Center de Abrantes", "municipality": "Abrantes", "district": "Santarém", "address": "Praça Raimundo Soares, 2200-366 Abrantes", "phone": "+351 241 361 101", "services": ["guia"], "coordinates": { "lat": 39.4622, "lng": -8.1977 } },
  { "name": "Posto de Turismo de Bragança", "municipality": "Bragança", "district": "Bragança", "address": "Av. Cidade de Zamora, 5300-111 Bragança", "phone": "+351 273 381 273", "services": ["guia"], "coordinates": { "lat": 41.8061, "lng": -6.7573 } },
  { "name": "Posto de Turismo de Vila Real", "municipality": "Vila Real", "district": "Vila Real", "address": "Av. Carvalho Araújo, 5000-657 Vila Real", "phone": "+351 259 322 819", "services": ["guia"], "coordinates": { "lat": 41.2960, "lng": -7.7440 } },
  { "name": "Posto de Turismo de Portalegre", "municipality": "Portalegre", "district": "Portalegre", "address": "Rossio, 7300-110 Portalegre", "phone": "+351 245 307 445", "services": ["guia"], "coordinates": { "lat": 39.2973, "lng": -7.4315 } },
  { "name": "Posto de Turismo de Évora", "municipality": "Évora", "district": "Évora", "address": "Praça do Giraldo, 7000-508 Évora", "phone": "+351 266 777 071", "services": ["guia"], "coordinates": { "lat": 38.5710, "lng": -7.9073 } },
  { "name": "Bar da Praia de Adaúfe", "municipality": "Braga", "district": "Braga", "address": "Praia Fluvial de Adaúfe, Braga", "phone": "", "services": ["carimbo"], "coordinates": { "lat": 41.5547, "lng": -8.4253 } },
  { "name": "Posto de Turismo de Penacova", "municipality": "Penacova", "district": "Coimbra", "address": "Largo Alberto Leitão, 3360-341 Penacova", "phone": "", "services": ["passaporte", "carimbo"], "coordinates": { "lat": 40.2711, "lng": -8.2847 } },
  { "name": "Bar da Praia de Avô", "municipality": "Oliveira do Hospital", "district": "Coimbra", "address": "Praia Fluvial de Avô", "phone": "", "services": ["carimbo"], "coordinates": { "lat": 40.2935, "lng": -7.8870 } },
  { "name": "Quiosque da Praia de Loriga", "municipality": "Seia", "district": "Guarda", "address": "Praia Fluvial de Loriga", "phone": "", "services": ["carimbo"], "coordinates": { "lat": 40.3339, "lng": -7.6720 } },
  { "name": "Posto de Turismo de Seia", "municipality": "Seia", "district": "Guarda", "address": "Largo do Mercado, 6270-494 Seia", "phone": "", "services": ["passaporte", "carimbo"], "coordinates": { "lat": 40.4200, "lng": -7.7000 } },
  { "name": "Bar da Praia do Azibo", "municipality": "Macedo de Cavaleiros", "district": "Bragança", "address": "Albufeira do Azibo", "phone": "", "services": ["carimbo"], "coordinates": { "lat": 41.5500, "lng": -6.8700 } },
  { "name": "Posto de Turismo de Arouca", "municipality": "Arouca", "district": "Aveiro", "address": "Praça Brandão de Vasconcelos, 4540-118 Arouca", "phone": "", "services": ["passaporte", "carimbo"], "coordinates": { "lat": 40.9300, "lng": -8.2400 } },
  { "name": "Bar do Pego Fundo", "municipality": "Alcoutim", "district": "Faro", "address": "Pego Fundo, Alcoutim", "phone": "", "services": ["carimbo"], "coordinates": { "lat": 37.4700, "lng": -7.4700 } }
]
